site_name,company_name,link,latitude,longitude,address,homepage,phone,sales_phone,email,sales_email,opening_hours,site_type,id,image_path
Carrières Daniel,,https://www.google.com/maps/place/Carri%C3%A8res+Daniel/data=!4m7!3m6!1s0xd57d70137e283bb:0x47bb7a63ba982daa!8m2!3d43.0477371!4d-0.0472519!16s%2Fg%2F1tl1k6q9!19sChIJu4PiNwHXVw0Rqi2YumN6u0c?authuser=0&amp;hl=en&amp;rclk=1,43.0477,-0.0473,"Le Village, 65100 Ger, France",,#ERROR!,,,,,Quarry,949a5a8b-8e9d-40c5-8100-2f30a3e82f7b,data/images/train/949a5a8b-8e9d-40c5-8100-2f30a3e82f7b_43.0477_-0.0473.png
Malet Horgues.,,https://www.google.com/maps/place/Malet+Horgues./data=!4m7!3m6!1s0x12a9d340dcd96815:0x7fc1a1dcc252237e!8m2!3d43.1902506!4d0.0915659!16s%2Fg%2F11c2lr5c5n!19sChIJFWjZ3EDTqRIRfiNSwtyhwX8?authuser=0&amp;hl=en&amp;rclk=1,43.1903,0.0916,"Chem. de Mansas, 65310 Horgues, France",,,,,,,Quarry,044d1092-4bb7-4e09-b073-113037a0a196,data/images/train/044d1092-4bb7-4e09-b073-113037a0a196_43.1903_0.0916.png
Carrieres Plo,,https://www.google.com/maps/place/Carrieres+Plo/data=!4m7!3m6!1s0x12a8442314ffa19f:0xe33b3521e586151b!8m2!3d42.9604826!4d0.3936722!16s%2Fg%2F1thzwtzk!19sChIJn6H_FCNEqBIRGxWG5SE1O-M?authuser=0&amp;hl=en&amp;rclk=1,42.9605,0.3937,"Village, 65410 Ilhet, France",,#ERROR!,,,,,Quarry,738e1bd8-6a64-40a9-85ff-c442965db618,data/images/train/738e1bd8-6a64-40a9-85ff-c442965db618_42.9605_0.3937.png
Dastugue Jean et Fils,,https://www.google.com/maps/place/Dastugue+Jean+et+Fils/data=!4m7!3m6!1s0x12a84ec6447e8019:0x4b0c3e308a2208cd!8m2!3d43.0688589!4d0.3865231!16s%2Fg%2F1td6_4j3!19sChIJGYB-RMZOqBIRzQgiijA-DEs?authuser=0&amp;hl=en&amp;rclk=1,43.0689,0.3865,"Rue du Bas Mour, 65250 La Barthe-de-Neste, France",,#ERROR!,,,,,Quarry,1e07b5a8-b697-4971-bc39-b57d05084eea,data/images/train/1e07b5a8-b697-4971-bc39-b57d05084eea_43.0689_0.3865.png
Pema Carrières Du Roc,,https://www.google.com/maps/place/Pema+Carri%C3%A8res+Du+Roc/data=!4m7!3m6!1s0x12a98d9ba949026b:0xda38963eb5e6f00a!8m2!3d43.6493295!4d0.3438957!16s%2Fg%2F11b6d4052c!19sChIJawJJqZuNqRIRCvDmtT6WONo?authuser=0&amp;hl=en&amp;rclk=1,43.6493,0.3439,"32320 Riguepeu, France",,#ERROR!,,,,,Quarry,e96a46a3-9be3-4d3d-a3ec-2563c0e13ef2,data/images/train/e96a46a3-9be3-4d3d-a3ec-2563c0e13ef2_43.6493_0.3439.png
Ancienne carrière de Saint-Cricq,,https://www.google.com/maps/place/Ancienne+carri%C3%A8re+de+Saint-Cricq/data=!4m7!3m6!1s0x12a97853c571897d:0xd05f3ecd7b4c8a3e!8m2!3d43.6676077!4d0.6353402!16s%2Fg%2F11bxfknq1d!19sChIJfYlxxVN4qRIRPopMe80-X9A?authuser=0&amp;hl=en&amp;rclk=1,43.6676,0.6353,"Chem. de Saint-Cricq, 32000 Auch, France",,,,,,,Quarry,a912d14a-c2b2-48f8-be8c-670d21bfdd3c,data/images/train/a912d14a-c2b2-48f8-be8c-670d21bfdd3c_43.6676_0.6353.png
Carrière de marbre,,https://www.google.com/maps/place/Carri%C3%A8re+de+marbre/data=!4m7!3m6!1s0x12a8cfa464f5ad2b:0x158a3112fa3cd1ab!8m2!3d42.9814894!4d1.0845616!16s%2Fg%2F11j7vclgj9!19sChIJK631ZKTPqBIRq9E8-hIxihU?authuser=0&amp;hl=en&amp;rclk=1,42.9815,1.0846,"Unnamed Road, 09200, Montégut-en-Couserans, France",,,,,,,Quarry,7a789d84-10e0-45ba-9cb3-d57a22cebe39,data/images/train/7a789d84-10e0-45ba-9cb3-d57a22cebe39_42.9815_1.0846.png
Marbriere Grand Antique,,https://www.google.com/maps/place/Marbriere+Grand+Antique/data=!4m7!3m6!1s0x12a8cf57f9395ef1:0x1a26883f48b34ce5!8m2!3d42.964384!4d1.105209!16s%2Fg%2F11p0blkns4!19sChIJ8V45-VfPqBIR5UyzSD-IJho?authuser=0&amp;hl=en&amp;rclk=1,42.9644,1.1052,"09200 Moulis, France",,,,,,,Quarry,4537c187-4b4e-415f-a723-a07934fd218b,data/images/train/4537c187-4b4e-415f-a723-a07934fd218b_42.9644_1.1052.png
Sablières de Garonne,,https://www.google.com/maps/place/Sabli%C3%A8res+de+Garonne/data=!4m7!3m6!1s0x12aece9e8a8aca87:0xb0f60b5f57bc41f3!8m2!3d43.376343!4d1.2915859!16s%2Fg%2F1thzwvfn!19sChIJh8qKip7OrhIR80G8V18L9rA?authuser=0&amp;hl=en&amp;rclk=1,43.3763,1.2916,"Village, 31410 Mauzac, France",,#ERROR!,,,,,Quarry,ce2302ed-cee4-4a54-9c2e-2a20c67c556e,data/images/train/ce2302ed-cee4-4a54-9c2e-2a20c67c556e_43.3763_1.2916.png
Carrière Diogo,,https://www.google.com/maps/place/Carri%C3%A8re+Diogo/data=!4m7!3m6!1s0x12ac851c93be5d0b:0x501e885c54144d5a!8m2!3d44.5158382!4d1.3315135!16s%2Fg%2F1tdqdmsy!19sChIJC12-kxyFrBIRWk0UVFyIHlA?authuser=0&amp;hl=en&amp;rclk=1,44.5158,1.3315,"Les Vitarelles, 46150 Crayssac, France",,#ERROR!,,,,,Quarry,5c0bed79-403c-454e-9a0f-8cd54f5db90e,data/images/train/5c0bed79-403c-454e-9a0f-8cd54f5db90e_44.5158_1.3315.png
Sablières de Garonne (SA),,https://www.google.com/maps/place/Sabli%C3%A8res+de+Garonne+%28SA%29/data=!4m7!3m6!1s0x12ae98d6383af18d:0x251e589024f4dbdb!8m2!3d43.6971163!4d1.5585078!16s%2Fg%2F113fwy6tr!19sChIJjfE6ONaYrhIR29v0JJBYHiU?authuser=0&amp;hl=en&amp;rclk=1,43.6971,1.5585,"Route Albi Rn 88, 31380 Garidech, France",,#ERROR!,,,,,Quarry,86abad94-7220-4803-984c-56907251b417,data/images/train/86abad94-7220-4803-984c-56907251b417_43.6971_1.5585.png
Sematec Negrepelisse,,https://www.google.com/maps/place/Sematec+Negrepelisse/data=!4m7!3m6!1s0x12ac3f9540eb76b3:0xf5c060eceaad408f!8m2!3d44.0781376!4d1.5631599!16s%2Fg%2F11kpdg9884!19sChIJs3brQJU_rBIRj0Ct6uxgwPU?authuser=0&amp;hl=en&amp;rclk=1,44.0781,1.5632,"3HH7+77, 82800 Nègrepelisse, France",,,,,,,Quarry,6d0b9177-929f-447b-a4fb-40e7ba6a5fa2,data/images/train/6d0b9177-929f-447b-a4fb-40e7ba6a5fa2_44.0781_1.5632.png
Carrières de la Grésigne,,https://www.google.com/maps/place/Carri%C3%A8res+de+la+Gr%C3%A9signe/data=!4m7!3m6!1s0x12ac4718c517ba1d:0xf094b2db5705c942!8m2!3d44.1171572!4d1.6195332!16s%2Fg%2F1tfsw6z_!19sChIJHboXxRhHrBIRQskFV9uylPA?authuser=0&amp;hl=en&amp;rclk=1,44.1172,1.6195,"82800 Montricoux, France",,#ERROR!,,,,,Quarry,3a1e0d39-25e5-4f27-a5b4-1dd3d29df8a4,data/images/train/3a1e0d39-25e5-4f27-a5b4-1dd3d29df8a4_44.1172_1.6195.png
Lasbordes Frères,,https://www.google.com/maps/place/Lasbordes+Fr%C3%A8res/data=!4m7!3m6!1s0x12acd22b11d57ce5:0xd7dd0cbcb1e0525b!8m2!3d44.9156!4d1.713135!16s%2Fg%2F1tg96m0z!19sChIJ5XzVESvSrBIRW1LgsbwM3dc?authuser=0&amp;hl=en&amp;rclk=1,44.9156,1.7131,"La Pasquie, 46110 Carennac, France",,#ERROR!,,,,,Quarry,5cd74eef-dbae-4275-a3cc-d1474ee56f9f,data/images/train/5cd74eef-dbae-4275-a3cc-d1474ee56f9f_44.9156_1.7131.png
Sourzat Ets,,https://www.google.com/maps/place/Sourzat+Ets/data=!4m7!3m6!1s0x12accd2a0a5faa59:0xe6c074164dcaf9c5!8m2!3d44.98475!4d1.637198!16s%2Fg%2F1tcx3kqf!19sChIJWapfCirNrBIRxfnKTRZ0wOY?authuser=0&amp;hl=en&amp;rclk=1,44.9847,1.6372,"Maledène, 46110 Strenquels, France",carriere-sourzat.fr,#ERROR!,,,,,Quarry,d2537e5b-0446-482d-878a-89f0a99cc83d,data/images/train/d2537e5b-0446-482d-878a-89f0a99cc83d_44.9847_1.6372.png
Sarl SEGUY TP carriere de vaylats,,https://www.google.com/maps/place/Sarl+SEGUY+TP+carriere+de+vaylats/data=!4m7!3m6!1s0x12ac5f48d7283fc7:0x228f850e1ca1caa1!8m2!3d44.3356126!4d1.6250549!16s%2Fg%2F11txvmhgyf!19sChIJxz8o10hfrBIRocqhHA6FjyI?authuser=0&amp;hl=en&amp;rclk=1,44.3356,1.6251,"46230 Lalbenque, France",,,,,,,Quarry,ac68c3f7-fbc9-4c29-9d38-cb9eb830992b,data/images/train/ac68c3f7-fbc9-4c29-9d38-cb9eb830992b_44.3356_1.6251.png
Carrière MTE,,https://www.google.com/maps/place/Carri%C3%A8re+MTE/data=!4m7!3m6!1s0x12acd3c56b36097b:0x81fe3b427e0df91!8m2!3d44.9082898!4d1.7212651!16s%2Fg%2F11hplw9fgk!19sChIJewk2a8XTrBIRkd_gJ7TjHwg?authuser=0&amp;hl=en&amp;rclk=1,44.9083,1.7213,"Le Begoux, 46110 Carennac, France",,,,,,,Quarry,9888faa7-3e71-456b-9ae7-bde17829d570,data/images/train/9888faa7-3e71-456b-9ae7-bde17829d570_44.9083_1.7213.png
S.T.A.P Société Travaux Agricole et Public,,https://www.google.com/maps/place/S.T.A.P+Soci%C3%A9t%C3%A9+Travaux+Agricole+et+Public/data=!4m7!3m6!1s0x12ad1e32bed5e6dd:0x68840a03b6ac3921!8m2!3d44.6286337!4d1.8345027!16s%2Fg%2F1vz85wgm!19sChIJ3ebVvjIerRIRITmstgMKhGg?authuser=0&amp;hl=en&amp;rclk=1,44.6286,1.8345,"Les Grézals, 46320 Livernon, France",stap-calmejane-travaux-publics.fr,#ERROR!,,,,,Quarry,4be69e3f-d188-4d2a-87a4-430102345dad,data/images/train/4be69e3f-d188-4d2a-87a4-430102345dad_44.6286_1.8345.png
Socal Société des Carrières du Lauragais,,https://www.google.com/maps/place/Socal+Soci%C3%A9t%C3%A9+des+Carri%C3%A8res+du+Lauragais/data=!4m7!3m6!1s0x12ae434ee090d577:0xade7474d086db8ff!8m2!3d43.396445!4d1.9985221!16s%2Fg%2F1tcthn8x!19sChIJd9WQ4E5DrhIR_7htCE1H560?authuser=0&amp;hl=en&amp;rclk=1,43.3964,1.9985,"Engay, 11400 Labécède-Lauragais, France",,#ERROR!,,,,,Quarry,a41e3f4b-2001-44c4-8f47-e4731aa1780b,data/images/train/a41e3f4b-2001-44c4-8f47-e4731aa1780b_43.3964_1.9985.png
Saint-Gobain Terréal,,https://www.google.com/maps/place/Saint-Gobain+Terr%C3%A9al/data=!4m7!3m6!1s0x12ae45987da1976d:0x2d330bc1aeb28016!8m2!3d43.3847505!4d1.9989642!16s%2Fg%2F1wcj_ybr!19sChIJbZehfZhFrhIRFoCyrsELMy0?authuser=0&amp;hl=en&amp;rclk=1,43.3848,1.999,"Chem. d'Issel, 11400 Labécède-Lauragais, France",,#ERROR!,,,,,Quarry,1947e105-f4e5-42fe-a23e-4560447d2bdb,data/images/train/1947e105-f4e5-42fe-a23e-4560447d2bdb_43.3848_1.999.png
Carrière Terreal Saint Papoul,,https://www.google.com/maps/place/Carri%C3%A8re+Terreal+Saint+Papoul/data=!4m7!3m6!1s0x12ae45b08cfa4c27:0x2f36557482049216!8m2!3d43.3414993!4d2.0396668!16s%2Fg%2F11bz_zb7pk!19sChIJJ0z6jLBFrhIRFpIEgnRVNi8?authuser=0&amp;hl=en&amp;rclk=1,43.3415,2.0397,"11400 Saint-Papoul, France",,,,,,,Quarry,dcb4ba93-3296-4618-b277-89ea8004952e,data/images/train/dcb4ba93-3296-4618-b277-89ea8004952e_43.3415_2.0397.png
Les Carrières de Roquetaillade,,https://www.google.com/maps/place/Les+Carri%C3%A8res+de+Roquetaillade/data=!4m7!3m6!1s0x12afc89a6f19cd71:0xcf32bf9fb346737f!8m2!3d43.0074134!4d2.1974119!16s%2Fg%2F1tfdw0c2!19sChIJcc0Zb5rIrxIRf3NGs5-_Ms8?authuser=0&amp;hl=en&amp;rclk=1,43.0074,2.1974,"Peyret, 11300 Roquetaillade-et-Conilhac, France",,,,,,,Quarry,b4243a5f-785d-49f9-a0d5-62f8ae177f41,data/images/train/b4243a5f-785d-49f9-a0d5-62f8ae177f41_43.0074_2.1974.png
Gatimel et Fils,,https://www.google.com/maps/place/Gatimel+et+Fils/data=!4m7!3m6!1s0x12ae11e87efe7e11:0xd74f875a5366482d!8m2!3d43.6059008!4d2.2414053!16s%2Fg%2F1td1xtl2!19sChIJEX7-fugRrhIRLUhmU1qHT9c?authuser=0&amp;hl=en&amp;rclk=1,43.6059,2.2414,"16 Rue des 3 Rois, 81100 Castres, France",,#ERROR!,,,,,Quarry,5355fd1e-8cfe-40b1-b87d-da7835393f22,data/images/train/5355fd1e-8cfe-40b1-b87d-da7835393f22_43.6059_2.2414.png
Sirven Christian,,https://www.google.com/maps/place/Sirven+Christian/data=!4m7!3m6!1s0x12ae04ce0805ba53:0x8233a5effea6c21!8m2!3d43.618236!4d2.352395!16s%2Fg%2F1vm6b9_j!19sChIJU7oFCM4ErhIRIWzq_146Iwg?authuser=0&amp;hl=en&amp;rclk=1,43.6182,2.3524,"La Sigarié, 81490 Saint-Salvy-de-la-Balme, France",,#ERROR!,,,,,Quarry,d7adbcbc-daa7-4eaa-9f64-acd784eb58e4,data/images/train/d7adbcbc-daa7-4eaa-9f64-acd784eb58e4_43.6182_2.3524.png
Carrière de l'Hermie,,https://www.google.com/maps/place/Carri%C3%A8re+de+l%27Hermie/data=!4m7!3m6!1s0x12ad696030ef6119:0xdaaa4214cfd15f26!8m2!3d44.6184945!4d2.2306575!16s%2Fg%2F1tfh6q15!19sChIJGWHvMGBprRIRJl_RzxRCqto?authuser=0&amp;hl=en&amp;rclk=1,44.6185,2.2307,"L'Hermie, 12300 Saint-Santin, France",,#ERROR!,,,,,Quarry,c0826eca-5495-4034-a588-6551b6a03095,data/images/train/c0826eca-5495-4034-a588-6551b6a03095_44.6185_2.2307.png
Imerys Ceramics France,,https://www.google.com/maps/place/Imerys+Ceramics+France/data=!4m7!3m6!1s0x12afe618b54cbb1b:0xd4cf3d0fffef4534!8m2!3d42.7810032!4d2.3074694!16s%2Fg%2F1td07303!19sChIJG7tMtRjmrxIRNEXv_w89z9Q?authuser=0&amp;hl=en&amp;rclk=1,42.781,2.3075,"Rte de la Boulzane, 11140 Salvezines, France",,#ERROR!,,,,,Quarry,48486bbf-21c8-4226-8330-da9944d2473f,data/images/train/48486bbf-21c8-4226-8330-da9944d2473f_42.781_2.3075.png
Carrières de Cassagnes Goutrens,,https://www.google.com/maps/place/Carri%C3%A8res+de+Cassagnes+Goutrens/data=!4m7!3m6!1s0x12ad795a8ebf5b7f:0xe0df6bf6a815a2db!8m2!3d44.4480928!4d2.3884144!16s%2Fg%2F1tkgtbkp!19sChIJf1u_jlp5rRIR26IVqPZr3-A?authuser=0&amp;hl=en&amp;rclk=1,44.4481,2.3884,"Les Carrières, 12390 Goutrens, France",,#ERROR!,,,,,Quarry,0c41e047-638b-4a83-bdaf-30e9c00a84c0,data/images/train/0c41e047-638b-4a83-bdaf-30e9c00a84c0_44.4481_2.3884.png
Carrière du roc de Buffens,,https://www.google.com/maps/place/Carri%C3%A8re+du+roc+de+Buffens/data=!4m7!3m6!1s0x12b1d99b944d7af1:0xaea677adc8a5af94!8m2!3d43.3343982!4d2.5261783!16s%2Fg%2F121kv_m1!19sChIJ8XpNlJvZsRIRlK-lyK13pq4?authuser=0&amp;hl=en&amp;rclk=1,43.3344,2.5262,"D620, 11160 Caunes-Minervois, France",,,,,,,Quarry,c40738fb-fdd7-4923-8db9-273f5bd68c09,data/images/train/c40738fb-fdd7-4923-8db9-273f5bd68c09_43.3344_2.5262.png
Carrière MAZARS TP,,https://www.google.com/maps/place/Carri%C3%A8re+MAZARS+TP/data=!4m7!3m6!1s0x12b27fa989b91163:0xf4b4e91f9aaf436a!8m2!3d44.3359009!4d2.4949522!16s%2Fg%2F11csq5_465!19sChIJYxG5ial_shIRakOvmh_ptPQ?authuser=0&amp;hl=en&amp;rclk=1,44.3359,2.495,"12510 Druelle Balsac, France",,#ERROR!,,,,,Quarry,3e3bc2c6-1f39-42c1-bc04-87b34e101abc,data/images/train/3e3bc2c6-1f39-42c1-bc04-87b34e101abc_44.3359_2.495.png
Bournet Serge,,https://www.google.com/maps/place/Bournet+Serge/data=!4m7!3m6!1s0x12b01f28a3b0ee5f:0x44f82ffb27a8effd!8m2!3d42.80077!4d2.530108!16s%2Fg%2F1vttzsz0!19sChIJX-6woygfsBIR_e-oJ_sv-EQ?authuser=0&amp;hl=en&amp;rclk=1,42.8008,2.5301,"Chemin La Carrière, 66220 Lesquerde, France",,#ERROR!,,,,,Quarry,fa82e509-ce47-4649-9104-449d69718b72,data/images/train/fa82e509-ce47-4649-9104-449d69718b72_42.8008_2.5301.png
La Lauze de l'Aveyron,,https://www.google.com/maps/place/La+Lauze+de+l%27Aveyron/data=!4m7!3m6!1s0x12b270956ebeb7b5:0x6471c68521828ee9!8m2!3d44.2018801!4d2.5602925!16s%2Fg%2F1td352_l!19sChIJtbe-bpVwshIR6Y6CIYXGcWQ?authuser=0&amp;hl=en&amp;rclk=1,44.2019,2.5603,"Carrière de La Barthe, 12120 Comps-la-Grand-Ville, France",lauze-aveyron.com,#ERROR!,,,,,Quarry,708fc41c-a171-4772-93a9-edc960dc4283,data/images/train/708fc41c-a171-4772-93a9-edc960dc4283_44.2019_2.5603.png
Carrière La Vialatelle,,https://www.google.com/maps/place/Carri%C3%A8re+La+Vialatelle/data=!4m7!3m6!1s0x12b2877d07e06d47:0x7867d2f4f1af9133!8m2!3d44.3859614!4d2.5998663!16s%2Fg%2F11rgp15fcs!19sChIJR23gB32HshIRM5Gv8fTSZ3g?authuser=0&amp;hl=en&amp;rclk=1,44.386,2.5999,"Vialatelle, 12850 Onet-le-Château, France",,,,,,,Quarry,f3ea8015-e220-47a8-a427-2de9754d28b8,data/images/train/f3ea8015-e220-47a8-a427-2de9754d28b8_44.386_2.5999.png
Palat Carrières et T.P,,https://www.google.com/maps/place/Palat+Carri%C3%A8res+et+T.P/data=!4m7!3m6!1s0x12b2a34dd824ff51:0x489eafed37facf06!8m2!3d44.737508!4d2.597243!16s%2Fg%2F1tf04vfl!19sChIJUf8k2E2jshIRBs_6N-2vnkg?authuser=0&amp;hl=en&amp;rclk=1,44.7375,2.5972,"La Capelle, 12140 Saint-Hippolyte, France",carriere-palat.com,#ERROR!,,,,,Quarry,d897fcaa-5e9e-4cc0-96f3-f3ebf602a7a9,data/images/train/d897fcaa-5e9e-4cc0-96f3-f3ebf602a7a9_44.7375_2.5972.png
Palat Carrière,,https://www.google.com/maps/place/Palat+Carri%C3%A8re/data=!4m7!3m6!1s0x12b2a34dd824ff51:0xd0753d2ed8659bec!8m2!3d44.7347084!4d2.6139447!16s%2Fg%2F113ffl8n5!19sChIJUf8k2E2jshIR7Jtl2C49ddA?authuser=0&amp;hl=en&amp;rclk=1,44.7347,2.6139,"Sergeant, 12140 Saint-Hippolyte, France",,#ERROR!,,,,,Quarry,c227ab8e-0a14-47c7-ae67-ad3411b433e9,data/images/train/c227ab8e-0a14-47c7-ae67-ad3411b433e9_44.7347_2.6139.png
EPC France Carrière Camp Grand,,https://www.google.com/maps/place/EPC+France+Carri%C3%A8re+Camp+Grand/data=!4m7!3m6!1s0x12b26fd093c91437:0x6828d45f910f74!8m2!3d44.1975639!4d2.6653735!16s%2Fg%2F11k4bc81jy!19sChIJNxTJk9BvshIRdA-RX9QoaAA?authuser=0&amp;hl=en&amp;rclk=1,44.1976,2.6654,"5MX8+24, 12120 Arvieu, France",,#ERROR!,,,,,Quarry,22eeaba5-404a-43c9-969a-204f5934f043,data/images/train/22eeaba5-404a-43c9-969a-204f5934f043_44.1976_2.6654.png
Pedreira (Cantière) de Salses,,https://www.google.com/maps/place/Pedreira+%28Canti%C3%A8re%29+de+Salses/data=!4m7!3m6!1s0x12b043836b248501:0x724da7e1af439eb4!8m2!3d42.8407342!4d2.9060407!16s%2Fg%2F11q4mpmh6l!19sChIJAYUka4NDsBIRtJ5Dr-GnTXI?authuser=0&amp;hl=en&amp;rclk=1,42.8407,2.906,"RWR4+7C, 66600 Salses-le-Château, France",,,,,,,Quarry,333d2cb1-774f-49e1-85ee-c43c596bb428,data/images/train/333d2cb1-774f-49e1-85ee-c43c596bb428_42.8407_2.906.png
Carriere Omya,,https://www.google.com/maps/place/Carriere+Omya/data=!4m7!3m6!1s0x12b04166d02fcb27:0xe4016b884081c78b!8m2!3d42.8347226!4d2.7972181!16s%2Fg%2F11sx0mg0md!19sChIJJ8sv0GZBsBIRi8eBQIhrAeQ?authuser=0&amp;hl=en&amp;rclk=1,42.8347,2.7972,"RQMW+VV, 66600 Vingrau, France",,,,,,,Quarry,61ea4993-0ec0-49fa-be3c-4cc5cdc268db,data/images/train/61ea4993-0ec0-49fa-be3c-4cc5cdc268db_42.8347_2.7972.png
GALIBERT ET FILS CARRIERES TP,,https://www.google.com/maps/place/GALIBERT+ET+FILS+CARRIERES+TP/data=!4m7!3m6!1s0x12b292c017a56d4d:0x41cab6017c1a8aec!8m2!3d44.5298741!4d2.7551648!16s%2Fg%2F1tfx_c_z!19sChIJTW2lF8CSshIR7IoafAG2ykE?authuser=0&amp;hl=en&amp;rclk=1,44.5299,2.7552,"18 Rte d'Alayrac, 12500 Espalion, France",carriere-galibert.fr,#ERROR!,,,,,Quarry,2e980eff-0b51-4077-bd59-a704e08dc29c,data/images/train/2e980eff-0b51-4077-bd59-a704e08dc29c_44.5299_2.7552.png
Valormat Environnement Narbonne,,https://www.google.com/maps/place/Valormat+Environnement+Narbonne/data=!4m7!3m6!1s0x12b1acf7fd4d69c7:0x620b22702bc6749a!8m2!3d43.1745158!4d2.9882849!16s%2Fg%2F1tkn4w7x!19sChIJx2lN_fessRIRmnTGK3AiC2I?authuser=0&amp;hl=en&amp;rclk=1,43.1745,2.9883,"62 Rue du Rec de Veyret, 11100 Narbonne, France",,#ERROR!,,,,,Quarry,76186516-0f94-4bd1-844a-798cc60cb3f5,data/images/train/76186516-0f94-4bd1-844a-798cc60cb3f5_43.1745_2.9883.png
Galibert René,,https://www.google.com/maps/place/Galibert+Ren%C3%A9/data=!4m7!3m6!1s0x12b2e55350c75a65:0x8479779b3b3132c2!8m2!3d44.512905!4d2.942938!16s%2Fg%2F1tdsm43t!19sChIJZVrHUFPlshIRwjIxO5t3eYQ?authuser=0&amp;hl=en&amp;rclk=1,44.5129,2.9429,"12470 Prades-d'Aubrac, France",,#ERROR!,,,,,Quarry,68796607-6a84-453e-a39c-05904097f916,data/images/train/68796607-6a84-453e-a39c-05904097f916_44.5129_2.9429.png
Societe Des Carrieres Du Cap Romarin,,https://www.google.com/maps/place/Societe+Des+Carrieres+Du+Cap+Romarin/data=!4m7!3m6!1s0x12b0573e1d1e40b1:0x1d5b7b15fc957a66!8m2!3d42.9828704!4d3.0179096!16s%2Fg%2F1tlx8f97!19sChIJsUAeHT5XsBIRZnqV_BV7Wx0?authuser=0&amp;hl=en&amp;rclk=1,42.9829,3.0179,"11480 La Palme, France",,#ERROR!,,,,,Quarry,177a35f6-2709-44a6-b070-49b7a04775c0,data/images/train/177a35f6-2709-44a6-b070-49b7a04775c0_42.9829_3.0179.png
Carrière de Marbre,,https://www.google.com/maps/place/Carri%C3%A8re+de+Marbre/data=!4m7!3m6!1s0x12b19e2584b67a13:0xa287aafc8f7c457f!8m2!3d43.4907901!4d3.090568!16s%2Fg%2F11c1s2r36r!19sChIJE3q2hCWesRIRf0V8j_yqh6I?authuser=0&amp;hl=en&amp;rclk=1,43.4908,3.0906,"Unnamed Road,, 34490 Causses-et-Veyran, France",,,,,,,Quarry,f3119107-8d20-4a37-974b-ca2ef65f2173,data/images/train/f3119107-8d20-4a37-974b-ca2ef65f2173_43.4908_3.0906.png
Delcros Daniel,,https://www.google.com/maps/place/Delcros+Daniel/data=!4m7!3m6!1s0x12b3298f820ec371:0x936ffd683e637f52!8m2!3d44.83733!4d3.202222!16s%2Fg%2F1td1xj5r!19sChIJccMOgo8psxIRUn9jPmj9b5M?authuser=0&amp;hl=en&amp;rclk=1,44.8373,3.2022,"Place Eglise, 48310 Albaret-le-Comtal, France",,#ERROR!,,,,,Quarry,f22def47-502e-4419-86fb-3b4186d8fa98,data/images/train/f22def47-502e-4419-86fb-3b4186d8fa98_44.8373_3.2022.png
Carrière,,https://www.google.com/maps/place/Carri%C3%A8re/data=!4m7!3m6!1s0x12b32f0ff197d921:0x8072ce6778018e7a!8m2!3d44.8685235!4d3.2577791!16s%2Fg%2F11fn0zq7hl!19sChIJIdmX8Q8vsxIReo4BeGfOcoA?authuser=0&amp;hl=en&amp;rclk=1,44.8685,3.2578,"48200 Albaret-Sainte-Marie, France",,,,,,,Quarry,3cf59e6a-e5c3-42b9-a025-3c6de9ef67db,data/images/train/3cf59e6a-e5c3-42b9-a025-3c6de9ef67db_44.8685_3.2578.png
Barathieu Pierre,,https://www.google.com/maps/place/Barathieu+Pierre/data=!4m7!3m6!1s0x12b30e7702a60ed3:0x68f42088da8002fb!8m2!3d44.4757386!4d3.3356715!16s%2Fg%2F1tqbf6cf!19sChIJ0w6mAncOsxIR-wKA2ogg9Gg?authuser=0&amp;hl=en&amp;rclk=1,44.4757,3.3357,"Qur des Plaines, 48230 Chanac, France",,#ERROR!,,,,,Quarry,17bc4ea4-fb2c-4338-be5e-b305b92f9d25,data/images/train/17bc4ea4-fb2c-4338-be5e-b305b92f9d25_44.4757_3.3357.png
Rabier Raymond,,https://www.google.com/maps/place/Rabier+Raymond/data=!4m7!3m6!1s0x12b30deaac601ac7:0x597a2c09d470b280!8m2!3d44.482474!4d3.358885!16s%2Fg%2F11b6d60tgc!19sChIJxxpgrOoNsxIRgLJw1Akselk?authuser=0&amp;hl=en&amp;rclk=1,44.4825,3.3589,"48230 Esclanèdes, France",,#ERROR!,,,,,Quarry,1bacac7f-4284-4ba1-b78d-40f2786e384b,data/images/train/1bacac7f-4284-4ba1-b78d-40f2786e384b_44.4825_3.3589.png
Société Exploitation Sables et Minéraux SAMIN,,https://www.google.com/maps/place/Soci%C3%A9t%C3%A9+Exploitation+Sables+et+Min%C3%A9raux+SAMIN/data=!4m7!3m6!1s0x12b30eb6bdd96b8b:0x1b802596278bcd9b!8m2!3d44.430294!4d3.3295345!16s%2Fg%2F1td8n8g8!19sChIJi2vZvbYOsxIRm82LJ5YlgBs?authuser=0&amp;hl=en&amp;rclk=1,44.4303,3.3295,"Cros Haut, 48230 Chanac, France",samin.fr,#ERROR!,,,,,Quarry,0b0c80be-2fb1-4fb1-abab-792fbcff8fb6,data/images/train/0b0c80be-2fb1-4fb1-abab-792fbcff8fb6_44.4303_3.3295.png
Carrière,,https://www.google.com/maps/place/Carri%C3%A8re/data=!4m7!3m6!1s0x12b32f9ab7257531:0x970701ba162595ce!8m2!3d44.860704!4d3.2582734!16s%2Fg%2F11hz__r048!19sChIJMXUlt5ovsxIRzpUlFroBB5c?authuser=0&amp;hl=en&amp;rclk=1,44.8607,3.2583,"D809, 48200 Albaret-Sainte-Marie, France",,,,,,{},Quarry,2ebf7a41-1ec1-4309-a54f-205205ec24bc,data/images/train/2ebf7a41-1ec1-4309-a54f-205205ec24bc_44.8607_3.2583.png
SOLAG,,https://www.google.com/maps/place/SOLAG/data=!4m7!3m6!1s0x12b13b7c066454cb:0x6f61adfc10379737!8m2!3d43.3091011!4d3.5052206!16s%2Fg%2F1tfdhfb1!19sChIJy1RkBnw7sRIRN5c3EPytYW8?authuser=0&amp;hl=en&amp;rclk=1,43.3091,3.5052,"Rue des Entrepreneurs, 34300 Agde, France",,#ERROR!,,,,,Quarry,f8ffaf4c-6436-4767-99ce-b5581a181472,data/images/train/f8ffaf4c-6436-4767-99ce-b5581a181472_43.3091_3.5052.png
carrières de Montdardier,,https://www.google.com/maps/place/carri%C3%A8res+de+Montdardier/data=!4m7!3m6!1s0x12b3ee21b1452343:0x5ed4dfc065690b7b!8m2!3d43.9434627!4d3.5783786!16s%2Fg%2F11d_2tv0b6!19sChIJQyNFsSHusxIRewtpZcDf1F4?authuser=0&amp;hl=en&amp;rclk=1,43.9435,3.5784,"30120 Montdardier, France",carriere-montdardier.fr,,,,,,Quarry,26e85248-9e24-4d28-a0ad-19f334bb0ecb,data/images/train/26e85248-9e24-4d28-a0ad-19f334bb0ecb_43.9435_3.5784.png
Virebayre Serge,,https://www.google.com/maps/place/Virebayre+Serge/data=!4m7!3m6!1s0x12b39a5f04929031:0x9d26a8d8c86ce534!8m2!3d44.3042299!4d3.6217802!16s%2Fg%2F1tgv9t8z!19sChIJMZCSBF-asxIRNOVsyNioJp0?authuser=0&amp;hl=en&amp;rclk=1,44.3042,3.6218,"48400 Florac-Trois-Rivières, France",,#ERROR!,,,,,Quarry,5df11c1a-12ee-43e4-ac2b-6fb05460b986,data/images/train/5df11c1a-12ee-43e4-ac2b-6fb05460b986_44.3042_3.6218.png
route de la carriere,,https://www.google.com/maps/place/route+de+la+carriere/data=!4m7!3m6!1s0x12b14bec8ed694b5:0xe3ff8bebf1048f6b!8m2!3d43.4805632!4d3.6728792!16s%2Fg%2F11hz8mwfqf!19sChIJtZTWjuxLsRIRa48E8euL_-M?authuser=0&amp;hl=en&amp;rclk=1,43.4806,3.6729,"route de la carriere, 34560 Poussan, France",,,,,,,Quarry,62137692-5615-4244-ac06-4302b38ad68c,data/images/train/62137692-5615-4244-ac06-4302b38ad68c_43.4806_3.6729.png
Schistes Rocher Eurl,,https://www.google.com/maps/place/Schistes+Rocher+Eurl/data=!4m7!3m6!1s0x12b36327b05c1f9d:0x8d8b600e3cb042ee!8m2!3d44.5015363!4d3.700871!16s%2Fg%2F1tm1mb8p!19sChIJnR9csCdjsxIR7kKwPA5gi40?authuser=0&amp;hl=en&amp;rclk=1,44.5015,3.7009,"1948 Le Tournel, 48190 Mont Lozère et Goulet, France",,#ERROR!,,,,,Quarry,5cdb009c-d684-4307-a169-7102e84793c2,data/images/train/5cdb009c-d684-4307-a169-7102e84793c2_44.5015_3.7009.png
Lafarge Granulats Sud,,https://www.google.com/maps/place/Lafarge+Granulats+Sud/data=!4m7!3m6!1s0x12b6ab1689d7ba27:0xb175d95f08b68c9!8m2!3d43.6771004!4d3.7663757!16s%2Fg%2F11b6dnrg2n!19sChIJJ7rXiRarthIRyWiL8JVdFws?authuser=0&amp;hl=en&amp;rclk=1,43.6771,3.7664,"27 Rue du Pla, 34980 Combaillaux, France",,#ERROR!,,,,,Quarry,10d1002c-b0ed-41a7-8bd6-b6ac715ad70c,data/images/train/10d1002c-b0ed-41a7-8bd6-b6ac715ad70c_43.6771_3.7664.png
Gsm Carrière,,https://www.google.com/maps/place/Gsm+Carri%C3%A8re/data=!4m7!3m6!1s0x12b6a7c651b59f77:0x10e7df847ffa74d3!8m2!3d43.7114137!4d3.9438021!16s%2Fg%2F11fgm7mgq3!19sChIJd5-1UcanthIR03T6f4Tf5xA?authuser=0&amp;hl=en&amp;rclk=1,43.7114,3.9438,"Route de Teyran, 34160 Castries, France",gsm-granulats.fr,#ERROR!,,,,,Quarry,75dfd2b9-5637-4418-a438-3229aac5fb62,data/images/train/75dfd2b9-5637-4418-a438-3229aac5fb62_43.7114_3.9438.png
L'ancienne petite carrière,,https://www.google.com/maps/place/L%27ancienne+petite+carri%C3%A8re/data=!4m7!3m6!1s0x12b6a1b0d59ca70d:0xe001f978fc565320!8m2!3d43.709652!4d4.0204947!16s%2Fg%2F11gr0mckgj!19sChIJDaec1bChthIRIFNW_Hj5AeA?authuser=0&amp;hl=en&amp;rclk=1,43.7097,4.0205,"34160 Saint-Geniès-des-Mourgues, France",,,,,,,Quarry,6525d21c-a99d-40fc-ba63-33fa07ba5f42,data/images/train/6525d21c-a99d-40fc-ba63-33fa07ba5f42_43.7097_4.0205.png
Ancienne carrière de Laval Pradel,,https://www.google.com/maps/place/Ancienne+carri%C3%A8re+de+Laval+Pradel/data=!4m7!3m6!1s0x12b467dfb286dc27:0x85eb06b3bab5472c!8m2!3d44.2378842!4d4.0497611!16s%2Fg%2F11sy6ztsvq!19sChIJJ9yGst9ntBIRLEe1urMG64U?authuser=0&amp;hl=en&amp;rclk=1,44.2379,4.0498,"62QX+5W, 30110 Laval-Pradel, France",,,,,,,Quarry,2d60bb20-afeb-437a-a347-37b35e9f5d78,data/images/train/2d60bb20-afeb-437a-a347-37b35e9f5d78_44.2379_4.0498.png
Lauze Serge,,https://www.google.com/maps/place/Lauze+Serge/data=!4m7!3m6!1s0x12b4439b9ea52b9f:0xe3501cb3a6e09df1!8m2!3d44.1295566!4d4.1381993!16s%2Fg%2F1hc2m5wcc!19sChIJnyulnptDtBIR8Z3gprMcUOM?authuser=0&amp;hl=en&amp;rclk=1,44.1296,4.1382,"32 Mnt de la Margue, 30340 Saint-Privat-des-Vieux, France",,#ERROR!,,,,,Quarry,c3a88027-a52e-497c-ba43-923f9b459428,data/images/train/c3a88027-a52e-497c-ba43-923f9b459428_44.1296_4.1382.png
Carrière,,https://www.google.com/maps/place/Carri%C3%A8re/data=!4m7!3m6!1s0x12b4213a643fc03b:0x6e72c0dc8201ce2e!8m2!3d43.7547831!4d4.0817882!16s%2Fg%2F11h7ck_629!19sChIJO8A_ZDohtBIRLs4BgtzAcm4?authuser=0&amp;hl=en&amp;rclk=1,43.7548,4.0818,"34160 Boisseron, France",,,,,,,Quarry,acfaf768-7cc3-4589-b09c-b8e0d7af09b2,data/images/train/acfaf768-7cc3-4589-b09c-b8e0d7af09b2_43.7548_4.0818.png
G.C CONSEIL,,https://www.google.com/maps/place/G.C+CONSEIL/data=!4m7!3m6!1s0x12b443130ede6973:0xc90f692d62102fc7!8m2!3d44.1229124!4d4.0847833!16s%2Fg%2F1tqd2y59!19sChIJc2neDhNDtBIRxy8QYi1pD8k?authuser=0&amp;hl=en&amp;rclk=1,44.1229,4.0848,"18 Bd Gambetta, 30100 Alès, France",,#ERROR!,,,,,Quarry,0b5c87d9-e1ce-4374-b759-359d096c7c17,data/images/train/0b5c87d9-e1ce-4374-b759-359d096c7c17_44.1229_4.0848.png
Carmeuse,,https://www.google.com/maps/place/Carmeuse/data=!4m7!3m6!1s0x12b42c4ffbf42b29:0xfe638f3808d573dc!8m2!3d43.8134035!4d4.3449249!16s%2Fg%2F1w4nnk74!19sChIJKSv0-08stBIR3HPVCDiPY_4?authuser=0&amp;hl=en&amp;rclk=1,43.8134,4.3449,"125 Rue de l'Hostellerie, 30900 Nîmes, France",,#ERROR!,,,,,Quarry,55b3a0a2-a19c-4917-b016-e20643d3b74d,data/images/train/55b3a0a2-a19c-4917-b016-e20643d3b74d_43.8134_4.3449.png
Tixa Beton,,https://www.google.com/maps/place/Tixa+Beton/data=!4m7!3m6!1s0x12b433f88b59b80b:0x4cdba60bf161974f!8m2!3d43.937205!4d4.322816!16s%2Fg%2F11b6df7dqr!19sChIJC7hZi_gztBIRT5dh8Qum20w?authuser=0&amp;hl=en&amp;rclk=1,43.9372,4.3228,"Chemin départemental 22 Russan, 30190 Sainte-Anastasie, France",,#ERROR!,,,,,Quarry,9a23f857-2d87-41d6-af43-509ddbdb1c0b,data/images/train/9a23f857-2d87-41d6-af43-509ddbdb1c0b_43.9372_4.3228.png
Carrieres Romaine Roquemailler,,https://www.google.com/maps/place/Carrieres+Romaine+Roquemailler/data=!4m7!3m6!1s0x12b43209c1ef9b19:0xd28119aa59f3442!8m2!3d43.8627684!4d4.3294136!16s%2Fg%2F1tr85zrc!19sChIJGZvvwQkytBIRQjSfpZoRKA0?authuser=0&amp;hl=en&amp;rclk=1,43.8628,4.3294,"785 Anc. Rte d'Anduze, 30900 Nîmes, France",,#ERROR!,,,,,Quarry,0c4ff43e-659b-4927-b016-bd6cfcb615d9,data/images/train/0c4ff43e-659b-4927-b016-bd6cfcb615d9_43.8628_4.3294.png
Lafarge Granulats Sud,,https://www.google.com/maps/place/Lafarge+Granulats+Sud/data=!4m7!3m6!1s0x12b5d6e43c94f66f:0x620dedf473f7f2b5!8m2!3d43.7538033!4d4.5145235!16s%2Fg%2F1tnxyv8d!19sChIJb_aUPOTWtRIRtfL3c_TtDWI?authuser=0&amp;hl=en&amp;rclk=1,43.7538,4.5145,"Domaine Amarine, 30127 Bellegarde, France",,#ERROR!,,,,,Quarry,f7dae75e-9427-446e-97c1-9b2942415d49,data/images/train/f7dae75e-9427-446e-97c1-9b2942415d49_43.7538_4.5145.png
Rhône Durance Granulats,,https://www.google.com/maps/place/Rh%C3%B4ne+Durance+Granulats/data=!4m7!3m6!1s0x12b5b80c43119033:0x892c7fa73d9972f6!8m2!3d44.01061!4d4.579739!16s%2Fg%2F113h38x6p!19sChIJM5ARQwy4tRIR9nKZPad_LIk?authuser=0&amp;hl=en&amp;rclk=1,44.0106,4.5797,"Route nationale 86, 30210 Valliguières, France",,#ERROR!,,,,,Quarry,cc942d72-7829-465d-818b-84c9e093c982,data/images/train/cc942d72-7829-465d-818b-84c9e093c982_44.0106_4.5797.png
Gedimat Farel clavel,,https://www.google.com/maps/place/Gedimat+Farel+clavel/data=!4m7!3m6!1s0x12b5ea7fcc638817:0x72c39552d7c3e8a1!8m2!3d43.96035!4d4.7261075!16s%2Fg%2F1hg4tgrq2!19sChIJF4hjzH_qtRIRoejD11KVw3I?authuser=0&amp;hl=en&amp;rclk=1,43.9603,4.7261,"6580 Route départementale, 30150 Roquemaure, France",,#ERROR!,,,,,Quarry,9f8ae7e0-44e6-44d9-9254-11393d1331a6,data/images/train/9f8ae7e0-44e6-44d9-9254-11393d1331a6_43.9603_4.7261.png
Rodriguez Carrière Estang,,https://www.google.com/maps/place/Rodriguez+Carri%C3%A8re+Estang/data=!4m7!3m6!1s0xd55fb7b5619b017:0xfb2571d4e62260b1!8m2!3d43.8682403!4d-0.0876799!16s%2Fg%2F11mvtnx2yb!19sChIJF7AZVnv7VQ0RsWAi5tRxJfs?authuser=0&amp;hl=en&amp;rclk=1,43.8682,-0.0877,"D30, 32240 Estang, France",,,,,,,Quarry,326ea5d2-e399-4cf5-9e41-9b8dce91fb56,data/images/train/326ea5d2-e399-4cf5-9e41-9b8dce91fb56_43.8682_-0.0877.png
Marble Stone Pyrénées,,https://www.google.com/maps/place/Marble+Stone+Pyr%C3%A9n%C3%A9es/data=!4m7!3m6!1s0x12a8cd7c4cfe5189:0x1cdedaae3cf831f0!8m2!3d42.8739375!4d1.204491!16s%2Fg%2F1vvw_n61!19sChIJiVH-THzNqBIR8DH4PK7a3hw?authuser=0&amp;hl=en&amp;rclk=1,42.8739,1.2045,"2A Z.A. de, 09140 Seix, France",vertdestours.com,#ERROR!,,,,,Quarry,1008a7e2-8873-49fe-8629-eb1d83ec2701,data/images/train/1008a7e2-8873-49fe-8629-eb1d83ec2701_42.8739_1.2045.png
Ardoisières des Pyrénées,,https://www.google.com/maps/place/Ardoisi%C3%A8res+des+Pyr%C3%A9n%C3%A9es/data=!4m7!3m6!1s0x12a82f1c9f330987:0x166e88913781c66b!8m2!3d43.0536804!4d0.101644!16s%2Fg%2F1td0jk6f!19sChIJhwkznxwvqBIRa8aBN5GIbhY?authuser=0&amp;hl=en&amp;rclk=1,43.0537,0.1016,"28 Cami Deth Canteret, 65200 Labassère, France",ardoises-deco.com,#ERROR!,,,,"{'Friday': ['8a.m.–12p.m.'], 'Saturday': ['Closed'], 'Sunday': ['Closed'], 'Monday': ['8a.m.–12p.m.', '1:30–5:30p.m.'], 'Tuesday': ['8a.m.–12p.m.', '1:30–5:30p.m.'], 'Wednesday': ['8a.m.–12p.m.', '1:30–5:30p.m.'], 'Thursday': ['8a.m.–12p.m.', '1:30–5:30p.m.']}",Quarry,d6bce8c8-c209-4df7-bc56-3638eccd65f9,data/images/train/d6bce8c8-c209-4df7-bc56-3638eccd65f9_43.0537_0.1016.png
CMGO Beauchalot,,https://www.google.com/maps/place/CMGO+Beauchalot/data=!4m7!3m6!1s0x12a8e0c71ef60fd7:0x81cbfdfe71166891!8m2!3d43.106893!4d0.884373!16s%2Fg%2F11ggsgfj3f!19sChIJ1w_2HsfgqBIRkWgWcf79y4E?authuser=0&amp;hl=en&amp;rclk=1,43.1069,0.8844,"lieu-dit, La Lanne, 31360 Beauchalot, France",cmgo.fr,#ERROR!,,,,"{'Friday': ['8a.m.–12p.m.', '2–5p.m.'], 'Saturday': ['Closed'], 'Sunday': ['Closed'], 'Monday': ['8a.m.–12p.m.', '2–5p.m.'], 'Tuesday': ['8a.m.–12p.m.', '2–5p.m.'], 'Wednesday': ['8a.m.–12p.m.', '2–5p.m.'], 'Thursday': ['8a.m.–12p.m.', '2–5p.m.']}",Quarry,0ee9d016-61b9-49ce-8490-c00a5e40e34e,data/images/train/0ee9d016-61b9-49ce-8490-c00a5e40e34e_43.1069_0.8844.png
CARRÈRE SAS,,https://www.google.com/maps/place/CARR%C3%88RE+SAS/data=!4m7!3m6!1s0x12a961c000000001:0xa083dab242c6a213!8m2!3d43.7954559!4d0.8660954!16s%2Fg%2F11b6dphcxn!19sChIJAQAAAMBhqRIRE6LGQrLag6A?authuser=0&amp;hl=en&amp;rclk=1,43.7955,0.8661,"32120 Homps, France",carrere-sas.fr,#ERROR!,,,,"{'Friday': ['7a.m.–12p.m.', '1–4p.m.'], 'Saturday': ['Closed'], 'Sunday': ['Closed'], 'Monday': ['Closed'], 'Tuesday': ['7a.m.–12p.m.', '1–5p.m.'], 'Wednesday': ['7a.m.–12p.m.', '1–5p.m.'], 'Thursday': ['7a.m.–12p.m.', '1–5p.m.']}",Quarry,07593322-b586-410d-9a5e-238cc59d6315,data/images/train/07593322-b586-410d-9a5e-238cc59d6315_43.7955_0.8661.png
Carrière de marbre,,https://www.google.com/maps/place/Carri%C3%A8re+de+marbre/data=!4m7!3m6!1s0x12a8c70bbb097919:0x376fcd0c4b17f2e1!8m2!3d42.8902597!4d0.9933404!16s%2Fg%2F11h84n6_pd!19sChIJGXkJuwvHqBIR4fIXSwzNbzc?authuser=0&amp;hl=en&amp;rclk=1,42.8903,0.9933,"Lassadou, 09800 Bordes-Uchentein, France",,,,,,,Quarry,73263398-931f-4b2e-ae5c-06978c6700c7,data/images/train/73263398-931f-4b2e-ae5c-06978c6700c7_42.8903_0.9933.png
Dos Santos Pereira Anastacio,,https://www.google.com/maps/place/Dos+Santos+Pereira+Anastacio/data=!4m7!3m6!1s0x12ac9f656da2f613:0xaf5759a1437c9d64!8m2!3d44.685277!4d1.261946!16s%2Fg%2F1td3_bd7!19sChIJE_aibWWfrBIRZJ18Q6FZV68?authuser=0&amp;hl=en&amp;rclk=1,44.6853,1.2619,"Le Bascoul, 46340 Salviac, France",,#ERROR!,,,,,Quarry,d92fe2bb-37ce-400d-8fb4-f0f305a9ccee,data/images/train/d92fe2bb-37ce-400d-8fb4-f0f305a9ccee_44.6853_1.2619.png
Sablières de Garonne,,https://www.google.com/maps/place/Sabli%C3%A8res+de+Garonne/data=!4m7!3m6!1s0x12aea84b89eaa475:0x12d91b8380e2127c!8m2!3d43.759271!4d1.3308819!16s%2Fg%2F11b6dh6pck!19sChIJdaTqiUuorhIRfBLigIMb2RI?authuser=0&amp;hl=en&amp;rclk=1,43.7593,1.3309,"13 Rue du Rouanel, 31330 Grenade, France",,#ERROR!,,,,,Quarry,55100629-e029-4d8e-866c-fd1763e24637,data/images/train/55100629-e029-4d8e-866c-fd1763e24637_43.7593_1.3309.png
"Lac Vert, Montpezat-de-Quercy",,"https://www.google.com/maps/place/Lac+Vert,+Montpezat-de-Quercy/data=!4m7!3m6!1s0x12ac66435f47b2dd:0x3a79ee512447910b!8m2!3d44.2657546!4d1.4666885!16s%2Fg%2F11bzzyj6j7!19sChIJ3bJHX0NmrBIRC5FHJFHueTo?authuser=0&amp;hl=en&amp;rclk=1",44.2658,1.4667,"82270 Montpezat-de-Quercy, France",,#ERROR!,,,,,Quarry,1f39b103-469f-4605-b86b-72b8fc762808,data/images/train/1f39b103-469f-4605-b86b-72b8fc762808_44.2658_1.4667.png
Bach Jean Paul,,https://www.google.com/maps/place/Bach+Jean+Paul/data=!4m7!3m6!1s0x12ac854c18f42dcb:0x1635f48c3846313e!8m2!3d44.5379676!4d1.3527448!16s%2Fg%2F1v_hw2pn!19sChIJyy30GEyFrBIRPjFGOIz0NRY?authuser=0&amp;hl=en&amp;rclk=1,44.538,1.3527,"Mas de Peyrou, 46150 Catus, France",,#ERROR!,,,,,Quarry,780977eb-d3c6-46b9-b4be-7ee5d2984ccd,data/images/train/780977eb-d3c6-46b9-b4be-7ee5d2984ccd_44.538_1.3527.png
Granulats Vicat,,https://www.google.com/maps/place/Granulats+Vicat/data=!4m7!3m6!1s0x12aea553d2723f51:0x87a60118c07d272d!8m2!3d43.6844153!4d1.4030031!16s%2Fg%2F11gmvrkrmh!19sChIJUT9y0lOlrhIRLSd9wBgBpoc?authuser=0&amp;hl=en&amp;rclk=1,43.6844,1.403,"Rte de Paris, 31150 Fenouillet, France",granulats-vicat.fr,#ERROR!,,,,"{'Friday': ['7a.m.–12p.m.', '1:15–4p.m.'], 'Saturday': ['Closed'], 'Sunday': ['Closed'], 'Monday': ['7a.m.–12p.m.', '1:15–5p.m.'], 'Tuesday': ['7a.m.–12p.m.', '1:15–5p.m.'], 'Wednesday': ['7a.m.–12p.m.', '1:15–5p.m.'], 'Thursday': ['7a.m.–12p.m.', '1:15–5p.m.']}",Quarry,f2e0acdd-0237-444b-9d92-43c75e4533ef,data/images/train/f2e0acdd-0237-444b-9d92-43c75e4533ef_43.6844_1.403.png
Etablissements Decremps,,https://www.google.com/maps/place/Etablissements+Decremps/data=!4m7!3m6!1s0x12ac905dc4eb329f:0xd4fedc5fd64d8469!8m2!3d44.5750296!4d1.3900763!16s%2Fg%2F1hc242sc5!19sChIJnzLrxF2QrBIRaYRN1l_c_tQ?authuser=0&amp;hl=en&amp;rclk=1,44.575,1.3901,"Pech Redon, 46150 Saint-Denis-Catus, France",carriere-decremps.com,#ERROR!,,,,"{'Friday': ['7:30a.m.–12p.m.', '1:30–5p.m.'], 'Saturday': ['Closed'], 'Sunday': ['Closed'], 'Monday': ['7:30a.m.–12p.m.', '1:30–5:30p.m.'], 'Tuesday': ['7:30a.m.–12p.m.', '1:30–5:30p.m.'], 'Wednesday': ['7:30a.m.–12p.m.', '1:30–5:30p.m.'], 'Thursday': ['7:30a.m.–12p.m.', '1:30–5:30p.m.']}",Quarry,6bd98f99-63d7-4771-a65d-065c7f754129,data/images/train/6bd98f99-63d7-4771-a65d-065c7f754129_44.575_1.3901.png
MONTAUT,,https://www.google.com/maps/place/MONTAUT/data=!4m7!3m6!1s0x12aee3d67070e2e9:0x157ca05250c818f5!8m2!3d43.2039669!4d1.6095716!16s%2Fg%2F11h9p8pytr!19sChIJ6eJwcNbjrhIR9RjIUFKgfBU?authuser=0&amp;hl=en&amp;rclk=1,43.204,1.6096,"L'Alma, 09700 Montaut, France",,#ERROR!,,,,,Quarry,d56ec3c9-552c-4331-87bb-32dc2e4ee6ab,data/images/train/d56ec3c9-552c-4331-87bb-32dc2e4ee6ab_43.204_1.6096.png
Sablières et Travaux Du Lot,,https://www.google.com/maps/place/Sabli%C3%A8res+et+Travaux+Du+Lot/data=!4m7!3m6!1s0x12accd8c152d8835:0x1afeb4a50bc70587!8m2!3d44.9353539!4d1.67011!16s%2Fg%2F1tctzlr3!19sChIJNYgtFYzNrBIRhwXHC6W0_ho?authuser=0&amp;hl=en&amp;rclk=1,44.9354,1.6701,"Pontou, 46600 Saint-Denis-lès-Martel, France",,#ERROR!,,,,,Quarry,afeb5338-a4f0-46d5-969f-95d0ed0833f4,data/images/train/afeb5338-a4f0-46d5-969f-95d0ed0833f4_44.9354_1.6701.png
Imerys Talc Luzenac,,https://www.google.com/maps/place/Imerys+Talc+Luzenac/data=!4m7!3m6!1s0x12af76ad3d1a9e49:0x31d25e8703d5008a!8m2!3d42.7655096!4d1.7523361!16s%2Fg%2F1tfhjgmy!19sChIJSZ4aPa12rxIRigDVA4de0jE?authuser=0&amp;hl=en&amp;rclk=1,42.7655,1.7523,"21 Rue Principale, 09250 Luzenac, France",imerys.com,#ERROR!,,,,"{'Friday': ['8:30a.m.–5p.m.'], 'Saturday': ['Closed'], 'Sunday': ['Closed'], 'Monday': ['8:30a.m.–5p.m.'], 'Tuesday': ['8:30a.m.–5p.m.'], 'Wednesday': ['8:30a.m.–5p.m.'], 'Thursday': ['8:30a.m.–5p.m.']}",Quarry,cc602cfe-8b8f-4eee-a4a4-fa2b708dae98,data/images/train/cc602cfe-8b8f-4eee-a4a4-fa2b708dae98_42.7655_1.7523.png
Ellena Jean-Claude,,https://www.google.com/maps/place/Ellena+Jean-Claude/data=!4m7!3m6!1s0x12ac49a606c51cab:0x66d7452789731!8m2!3d44.1159095!4d1.7235857!16s%2Fg%2F1tfx_ck3!19sChIJqxzFBqZJrBIRMZd4UnRtBgA?authuser=0&amp;hl=en&amp;rclk=1,44.1159,1.7236,"Vayrevignes, 81140 Penne, France",,#ERROR!,,,,,Quarry,aa8626d3-bf3c-4c02-b14d-7b4ac7456ab9,data/images/train/aa8626d3-bf3c-4c02-b14d-7b4ac7456ab9_44.1159_1.7236.png
Carrière Semenou,,https://www.google.com/maps/place/Carri%C3%A8re+Semenou/data=!4m7!3m6!1s0x12ae5f2055955cff:0x3b086b50a6154d6b!8m2!3d43.408468!4d1.868708!16s%2Fg%2F1tht8_q2!19sChIJ_1yVVSBfrhIRa00VplBrCDs?authuser=0&amp;hl=en&amp;rclk=1,43.4085,1.8687,"Le Caussanel, 11320 Saint-Paulet, France",msx827.wixsite.com,#ERROR!,,,,"{'Friday': ['8a.m.–12p.m.', '2–6p.m.'], 'Saturday': ['Closed'], 'Sunday': ['Closed'], 'Monday': ['8a.m.–12p.m.', '2–6p.m.'], 'Tuesday': ['8a.m.–12p.m.', '2–6p.m.'], 'Wednesday': ['8a.m.–12p.m.', '2–6p.m.'], 'Thursday': ['8a.m.–12p.m.', '2–6p.m.']}",Quarry,3f022416-7fc1-407e-80aa-f71d518d74ef,data/images/train/3f022416-7fc1-407e-80aa-f71d518d74ef_43.4085_1.8687.png
S.g.m Sarl,,https://www.google.com/maps/place/S.g.m+Sarl/data=!4m7!3m6!1s0x12add3d4c2173db7:0x8c29ca9bfab46d35!8m2!3d43.888534!4d1.906615!16s%2Fg%2F1v13wl7f!19sChIJtz0XwtTTrRIRNW20-pvKKYw?authuser=0&amp;hl=en&amp;rclk=1,43.8885,1.9066,"La Plantade, 81600 Brens, France",,#ERROR!,,,,,Quarry,e27ca033-0558-4c10-9acc-ff41c9ec716d,data/images/train/e27ca033-0558-4c10-9acc-ff41c9ec716d_43.8885_1.9066.png
Areny,,https://www.google.com/maps/place/Areny/data=!4m7!3m6!1s0x12af8bd3495616ed:0x11738065d18dcec0!8m2!3d42.5570602!4d2.0743141!16s%2Fg%2F11b6d6l636!19sChIJ7RZWSdOLrxIRwM6N0WWAcxE?authuser=0&amp;hl=en&amp;rclk=1,42.5571,2.0743,"Pla de Saillens, 66210 Les Angles, France",arenytp.fr,#ERROR!,,,,"{'Friday': ['8a.m.–5p.m.'], 'Saturday': ['Closed'], 'Sunday': ['Closed'], 'Monday': ['8a.m.–5p.m.'], 'Tuesday': ['8a.m.–5p.m.'], 'Wednesday': ['8a.m.–5p.m.'], 'Thursday': ['8a.m.–5p.m.']}",Quarry,de31b1ab-18e9-46d0-bde0-05d976137411,data/images/train/de31b1ab-18e9-46d0-bde0-05d976137411_42.5571_2.0743.png
Société des Carrières de Villeneuve,,https://www.google.com/maps/place/Soci%C3%A9t%C3%A9+des+Carri%C3%A8res+de+Villeneuve/data=!4m7!3m6!1s0x12ad08dbcf980f93:0xcb7a9075cf18d226!8m2!3d44.444741!4d2.0217423!16s%2Fg%2F1td3nnlw!19sChIJkw-Yz9sIrRIRJtIYz3WQess?authuser=0&amp;hl=en&amp;rclk=1,44.4447,2.0217,"Mas de Foissac, 12260 Villeneuve, France",,#ERROR!,,,,,Quarry,6d3db4be-fc58-4974-a7fc-3a5c75c2de4d,data/images/train/6d3db4be-fc58-4974-a7fc-3a5c75c2de4d_44.4447_2.0217.png
Carriere Savensa,,https://www.google.com/maps/place/Carriere+Savensa/data=!4m7!3m6!1s0x12ada55955aec3f9:0xe37d43fc42a0f6d3!8m2!3d44.243152!4d2.0197853!16s%2Fg%2F11sqkdmfx0!19sChIJ-cOuVVmlrRIR0_agQvxDfeM?authuser=0&amp;hl=en&amp;rclk=1,44.2432,2.0198,"D638, 12270 La Fouillade, France",,,,,,{},Quarry,fb01c738-d463-4bc4-b916-3e7357642af6,data/images/train/fb01c738-d463-4bc4-b916-3e7357642af6_44.2432_2.0198.png
Atelier Carrière Molière,,https://www.google.com/maps/place/Atelier+Carri%C3%A8re+Moli%C3%A8re/data=!4m7!3m6!1s0x12adebbdd9b2ab29:0x780b3d81b44d543e!8m2!3d44.0204356!4d2.1984844!16s%2Fg%2F1tjjrfc2!19sChIJKauy2b3rrRIRPlRNtIE9C3g?authuser=0&amp;hl=en&amp;rclk=1,44.0204,2.1985,"Le Couderc, 81400 Rosières, France",,#ERROR!,,,,,Quarry,f46da47c-516d-42b3-9b8b-cd10a17799c7,data/images/train/f46da47c-516d-42b3-9b8b-cd10a17799c7_44.0204_2.1985.png
Carrière de La Peyrière,,https://www.google.com/maps/place/Carri%C3%A8re+de+La+Peyri%C3%A8re/data=!4m7!3m6!1s0x12ad9f311eae1939:0xcf0d599226fff879!8m2!3d44.3136128!4d2.1806113!16s%2Fg%2F1tn8nq8f!19sChIJORmuHjGfrRIRefj_JpJZDc8?authuser=0&amp;hl=en&amp;rclk=1,44.3136,2.1806,"857J+F6, 12240 La Capelle-Bleys, France",,#ERROR!,,,,,Quarry,f9042925-0035-4899-bad8-77af0895fa00,data/images/train/f9042925-0035-4899-bad8-77af0895fa00_44.3136_2.1806.png
Patebex,,https://www.google.com/maps/place/Patebex/data=!4m7!3m6!1s0x12afcf261bd612c7:0x8a0e020d4d97a74d!8m2!3d43.0413767!4d2.2413643!16s%2Fg%2F11b6dq50qn!19sChIJxxLWGybPrxIRTaeXTQ0CDoo?authuser=0&amp;hl=en&amp;rclk=1,43.0414,2.2414,"118 Chemin départemental, 11300 Cournanel, France",etablissements-patebex.fr,#ERROR!,,,,"{'Friday': ['7:30a.m.–12p.m.', '1–4:30p.m.'], 'Saturday': ['Closed'], 'Sunday': ['Closed'], 'Monday': ['7:30a.m.–12p.m.', '1–5p.m.'], 'Tuesday': ['7:30a.m.–12p.m.', '1–5p.m.'], 'Wednesday': ['7:30a.m.–12p.m.', '1–5p.m.'], 'Thursday': ['7:30a.m.–12p.m.', '1–5p.m.']}",Quarry,06da6a78-8f69-4afe-aae4-bea28428bed0,data/images/train/06da6a78-8f69-4afe-aae4-bea28428bed0_43.0414_2.2414.png
Carrieres Plo,,https://www.google.com/maps/place/Carrieres+Plo/data=!4m7!3m6!1s0x12ae1b5040acd5c7:0x964a664511586f80!8m2!3d43.6052489!4d2.3764732!16s%2Fg%2F1td352nw!19sChIJx9WsQFAbrhIRgG9YEUVmSpY?authuser=0&amp;hl=en&amp;rclk=1,43.6052,2.3765,"Sardagne, 81490 Saint-Salvy-de-la-Balme, France",plo.fr,#ERROR!,,,,"{'Friday': ['8a.m.–12p.m.', '1–4p.m.'], 'Saturday': ['Closed'], 'Sunday': ['Closed'], 'Monday': ['8a.m.–12p.m.', '1–5p.m.'], 'Tuesday': ['8a.m.–12p.m.', '1–5p.m.'], 'Wednesday': ['8a.m.–12p.m.', '1–5p.m.'], 'Thursday': ['8a.m.–12p.m.', '1–5p.m.']}",Quarry,9ee575f4-5034-4a64-9053-5881b77b0f2d,data/images/train/9ee575f4-5034-4a64-9053-5881b77b0f2d_43.6052_2.3765.png
D G Pietra,,https://www.google.com/maps/place/D+G+Pietra/data=!4m7!3m6!1s0x12ae04945dd49fd5:0xd6299f2aadeb5e9f!8m2!3d43.6358528!4d2.36395!16s%2Fg%2F11by_ff45r!19sChIJ1Z_UXZQErhIRn17rrSqfKdY?authuser=0&amp;hl=en&amp;rclk=1,43.6359,2.3639,"dg pietra, Burlats, France",dgpietra.wordpress.com,#ERROR!,,,,"{'Friday': ['8a.m.–12p.m.', '2–5p.m.'], 'Saturday': ['Closed'], 'Sunday': ['Closed'], 'Monday': ['8a.m.–12p.m.', '2–6p.m.'], 'Tuesday': ['8a.m.–12p.m.', '2–6p.m.'], 'Wednesday': ['8a.m.–12p.m.', '2–6p.m.'], 'Thursday': ['8a.m.–12p.m.', '2–6p.m.']}",Quarry,48553749-27e4-4ae7-b1b3-f7f7632baddd,data/images/train/48553749-27e4-4ae7-b1b3-f7f7632baddd_43.6359_2.3639.png
Carrière terre de Vendémies,,https://www.google.com/maps/place/Carri%C3%A8re+terre+de+Vend%C3%A9mies/data=!4m7!3m6!1s0x12afcefd58908775:0x90a397a4cb8f729d!8m2!3d43.0355432!4d2.2575004!16s%2Fg%2F11bbtgm_w1!19sChIJdYeQWP3OrxIRnXKPy6SXo5A?authuser=0&amp;hl=en&amp;rclk=1,43.0355,2.2575,"D229, 11300 Limoux, France",,,,,,{},Quarry,7c9e996a-deff-4d75-8232-9a0c51c4a593,data/images/train/7c9e996a-deff-4d75-8232-9a0c51c4a593_43.0355_2.2575.png
Granitarn - Brachot Family Member,,https://www.google.com/maps/place/Granitarn+-+Brachot+Family+Member/data=!4m7!3m6!1s0x12ae04db26604039:0x63de6e9bb5a18628!8m2!3d43.6362425!4d2.3767158!16s%2Fg%2F11btlv5x6q!19sChIJOUBgJtsErhIRKIahtZtu3mM?authuser=0&amp;hl=en&amp;rclk=1,43.6362,2.3767,"260 route du Lac du Merle Lieu-dit Sionac, 81100 Burlats, France",brachot.com,#ERROR!,,,,"{'Friday': ['7:30a.m.–4:30p.m.'], 'Saturday': ['Closed'], 'Sunday': ['Closed'], 'Monday': ['7:30a.m.–4:30p.m.'], 'Tuesday': ['7:30a.m.–4:30p.m.'], 'Wednesday': ['7:30a.m.–4:30p.m.'], 'Thursday': ['7:30a.m.–4:30p.m.']}",Quarry,76e32841-1b7c-4a93-9bf9-2ba184aabeab,data/images/train/76e32841-1b7c-4a93-9bf9-2ba184aabeab_43.6362_2.3767.png
Sarl Carrieres Du Sidobre,,https://www.google.com/maps/place/Sarl+Carrieres+Du+Sidobre/data=!4m7!3m6!1s0x12ae048b320aab1d:0x616805247245fe2f!8m2!3d43.6485911!4d2.3617278!16s%2Fg%2F1v47nyt9!19sChIJHasKMosErhIRL_5FciQFaGE?authuser=0&amp;hl=en&amp;rclk=1,43.6486,2.3617,"1 Belherbette, 81210 Lacrouzette, France",brachot.com,#ERROR!,,,,,Quarry,bcdecdfa-7979-42df-a0f2-2c2caa48c6c0,data/images/train/bcdecdfa-7979-42df-a0f2-2c2caa48c6c0_43.6486_2.3617.png
Cambesse Granits,,https://www.google.com/maps/place/Cambesse+Granits/data=!4m7!3m6!1s0x12ae046468b981ed:0x90a0fb0d98dcd83a!8m2!3d43.6571844!4d2.3683463!16s%2Fg%2F11b6czc7zn!19sChIJ7YG5aGQErhIROtjcmA37oJA?authuser=0&amp;hl=en&amp;rclk=1,43.6572,2.3683,"Tarriman, 81210 Lacrouzette, France",cambesse-granits.com,#ERROR!,,,,,Quarry,847ed932-b76f-4e41-b781-49f93aa17293,data/images/train/847ed932-b76f-4e41-b781-49f93aa17293_43.6572_2.3683.png
CARRIERE TERRALBES (Extraction de marbre rouge à Caunes-Minervois),,https://www.google.com/maps/place/CARRIERE+TERRALBES+%28Extraction+de+marbre+rouge+%C3%A0+Caunes-Minervois%29/data=!4m7!3m6!1s0x12b1d9b4f820ce15:0xa3911fc8fb400064!8m2!3d43.3369012!4d2.5383571!16s%2Fg%2F11pxwbrrd5!19sChIJFc4g-LTZsRIRZABA-8gfkaM?authuser=0&amp;hl=en&amp;rclk=1,43.3369,2.5384,"All. des Carrières, 11160 Caunes-Minervois, France",,#ERROR!,,,,,Quarry,acddcecb-9bfc-4111-bb61-b8d7d71b075b,data/images/train/acddcecb-9bfc-4111-bb61-b8d7d71b075b_43.3369_2.5384.png
Carrière de Perbencous,,https://www.google.com/maps/place/Carri%C3%A8re+de+Perbencous/data=!4m7!3m6!1s0x12b26d059dcedf8b:0x177388d921a8fd88!8m2!3d44.1178432!4d2.6376572!16s%2Fg%2F11p5n9xqfw!19sChIJi9_OnQVtshIRiP2oIdmIcxc?authuser=0&amp;hl=en&amp;rclk=1,44.1178,2.6377,"Perbencous, 12170 Durenque, France",carriere-perbencous.fr,#ERROR!,,,,"{'Friday': ['8a.m.–5:30p.m.'], 'Saturday': ['Closed'], 'Sunday': ['Closed'], 'Monday': ['8a.m.–5:30p.m.'], 'Tuesday': ['8a.m.–5:30p.m.'], 'Wednesday': ['8a.m.–5:30p.m.'], 'Thursday': ['8a.m.–5:30p.m.']}",Quarry,6c751e33-823a-4697-8f81-84c293cfc9f8,data/images/train/6c751e33-823a-4697-8f81-84c293cfc9f8_44.1178_2.6377.png
CMSE - Carrière de Raffanel,,https://www.google.com/maps/place/CMSE+-+Carri%C3%A8re+de+Raffanel/data=!4m7!3m6!1s0x12b1f68ddca3ceb7:0x34da3c4c4295eb9d!8m2!3d43.71308!4d2.682972!16s%2Fg%2F11fxqvh2xk!19sChIJt86j3I32sRIRneuVQkw82jQ?authuser=0&amp;hl=en&amp;rclk=1,43.7131,2.683,"lieu-dit Boussou, 81230 Lacaune, France",,#ERROR!,,,,"{'Friday': ['8a.m.–6p.m.'], 'Saturday': ['Closed'], 'Sunday': ['Closed'], 'Monday': ['8a.m.–6p.m.'], 'Tuesday': ['8a.m.–6p.m.'], 'Wednesday': ['8a.m.–6p.m.'], 'Thursday': ['8a.m.–6p.m.']}",Quarry,69e11baf-311a-4acb-bebc-62fed97f08e8,data/images/train/69e11baf-311a-4acb-bebc-62fed97f08e8_43.7131_2.683.png
CMSE - Carrière de Sainte-Colombe,,https://www.google.com/maps/place/CMSE+-+Carri%C3%A8re+de+Sainte-Colombe/data=!4m7!3m6!1s0x12b00c57f5584883:0x900caf5096ac9dd!8m2!3d42.6321504!4d2.735166!16s%2Fg%2F1tgc1ty2!19sChIJg0hY9VcMsBIR3clqCfXKAAk?authuser=0&amp;hl=en&amp;rclk=1,42.6322,2.7352,"Rte de Castelnou, 66300 Thuir, France",,#ERROR!,,,,"{'Friday': ['7:15a.m.–12p.m.', '1–4:45p.m.'], 'Saturday': ['Closed'], 'Sunday': ['Closed'], 'Monday': ['7:15a.m.–12p.m.', '1–5p.m.'], 'Tuesday': ['7:15a.m.–12p.m.', '1–5p.m.'], 'Wednesday': ['7:15a.m.–12p.m.', '1–5p.m.'], 'Thursday': ['7:15a.m.–12p.m.', '1–5p.m.']}",Quarry,c5ad474e-f59a-4fe2-a0d2-1542257f7e92,data/images/train/c5ad474e-f59a-4fe2-a0d2-1542257f7e92_42.6322_2.7352.png
So.t.e.c,,https://www.google.com/maps/place/So.t.e.c/data=!4m7!3m6!1s0x12b1cb458118a86b:0xbafc056f6c25b20c!8m2!3d43.1525585!4d2.7110473!16s%2Fg%2F1thnf1t1!19sChIJa6gYgUXLsRIRDLIlbG8F_Lo?authuser=0&amp;hl=en&amp;rclk=1,43.1526,2.711,"Les Legnes, 11200 Fabrezan, France",,#ERROR!,,,,,Quarry,fe70be7c-0bbb-4219-91ea-563d5c65552a,data/images/train/fe70be7c-0bbb-4219-91ea-563d5c65552a_43.1526_2.711.png
SARL SAMAC LES MARBRES DE FRANCE,,https://www.google.com/maps/place/SARL+SAMAC+LES+MARBRES+DE+FRANCE/data=!4m7!3m6!1s0x12b194d63fb462c5:0x3653f33c113346b0!8m2!3d43.4902828!4d2.7838698!16s%2Fg%2F1tcx3l20!19sChIJxWK0P9aUsRIRsEYzETzzUzY?authuser=0&amp;hl=en&amp;rclk=1,43.4903,2.7839,"LIEU DIT, 34220 Saint-Pons-de-Thomières, France",marbres-de-france.fr,#ERROR!,,,,"{'Friday': ['8a.m.–12p.m.', '1–5:30p.m.'], 'Saturday': ['Closed'], 'Sunday': ['Closed'], 'Monday': ['Closed'], 'Tuesday': ['8a.m.–12p.m.', '1–5:30p.m.'], 'Wednesday': ['8a.m.–12p.m.', '1–5:30p.m.'], 'Thursday': ['8a.m.–12p.m.', '1–5:30p.m.']}",Quarry,1e963654-da3a-44fb-99c7-1de8459ca875,data/images/train/1e963654-da3a-44fb-99c7-1de8459ca875_43.4903_2.7839.png
Les Chaux du Périgord Carrières Fours,,https://www.google.com/maps/place/Les+Chaux+du+P%C3%A9rigord+Carri%C3%A8res+Fours/data=!4m7!3m6!1s0x12b2f5325a8c6da5:0xa69524fc36d22fc4!8m2!3d44.3921601!4d2.7809599!16s%2Fg%2F11b6dcynrn!19sChIJpW2MWjL1shIRxC_SNvwklaY?authuser=0&amp;hl=en&amp;rclk=1,44.3922,2.781,"3 Av. Claude Salles, 12310 Bertholène, France",,#ERROR!,,,,,Quarry,d278d1c1-5bb7-455f-9200-dba5c98860ab,data/images/train/d278d1c1-5bb7-455f-9200-dba5c98860ab_44.3922_2.781.png
Boix et Compagnie Ets,,https://www.google.com/maps/place/Boix+et+Compagnie+Ets/data=!4m7!3m6!1s0x12b2c83b8dec4e59:0x78867458d670ebb!8m2!3d44.840458!4d2.791429!16s%2Fg%2F1thh4xy4!19sChIJWU7sjTvIshIRuw5njUVniAc?authuser=0&amp;hl=en&amp;rclk=1,44.8405,2.7914,"12420 Cantoin, France",,#ERROR!,,,,,Quarry,503941bd-4798-4eb2-850f-8278caa77a6d,data/images/train/503941bd-4798-4eb2-850f-8278caa77a6d_44.8405_2.7914.png
Sci Trouc,,https://www.google.com/maps/place/Sci+Trouc/data=!4m7!3m6!1s0x12b06dc0031aab7b:0xe3709b1acd4056c0!8m2!3d42.6922964!4d2.8382724!16s%2Fg%2F11b6c_fylw!19sChIJe6saA8BtsBIRwFZAzRqbcOM?authuser=0&amp;hl=en&amp;rclk=1,42.6923,2.8383,"3160 Av. de Prades, 66000 Perpignan, France",,#ERROR!,,,,,Quarry,56234889-d84b-4ae9-9389-bd84e729f17e,data/images/train/56234889-d84b-4ae9-9389-bd84e729f17e_42.6923_2.8383.png
Carrière des Planquettes (Laissac) - CONTE,,https://www.google.com/maps/place/Carri%C3%A8re+des+Planquettes+%28Laissac%29+-+CONTE/data=!4m7!3m6!1s0x12b2f5e74be9dda9:0xeea966d7b4fa2214!8m2!3d44.3931103!4d2.8288243!16s%2Fg%2F11t8bx15bt!19sChIJqd3pS-f1shIRFCL6tNdmqe4?authuser=0&amp;hl=en&amp;rclk=1,44.3931,2.8288,"12310 Laissac-Sévérac l'Église, France",conte-tp.com,#ERROR!,,,,"{'Friday': ['8a.m.–12p.m.', '1:30–4:30p.m.'], 'Saturday': ['Closed'], 'Sunday': ['Closed'], 'Monday': ['8a.m.–12p.m.', '1:30–5:30p.m.'], 'Tuesday': ['8a.m.–12p.m.', '1:30–5:30p.m.'], 'Wednesday': ['8a.m.–12p.m.', '1:30–5:30p.m.'], 'Thursday': ['8a.m.–12p.m.', '1:30–5:30p.m.']}",Quarry,5c35495c-379f-45ab-8a94-2d9120d5afdc,data/images/train/5c35495c-379f-45ab-8a94-2d9120d5afdc_44.3931_2.8288.png
Carrière De Galinieres,,https://www.google.com/maps/place/Carri%C3%A8re+De+Galinieres/data=!4m7!3m6!1s0x12b2f7183933e391:0xe5b762da265548a1!8m2!3d44.4346522!4d2.8969654!16s%2Fg%2F11ghs8nvp2!19sChIJkeMzORj3shIRoUhVJtpit-U?authuser=0&amp;hl=en&amp;rclk=1,44.4347,2.897,"D64, 12130 Pierrefiche, France",,,,,,,Quarry,f8b78cbe-3342-460b-b4e9-a95e6fa95224,data/images/train/f8b78cbe-3342-460b-b4e9-a95e6fa95224_44.4347_2.897.png
carrière Bois et Cantoinet,,https://www.google.com/maps/place/carri%C3%A8re+Bois+et+Cantoinet/data=!4m7!3m6!1s0x12b2c9e49493c071:0xca5c0997a8326e5b!8m2!3d44.8373821!4d2.7850786!16s%2Fg%2F11q3qwr3zb!19sChIJccCTlOTJshIRW24yqJcJXMo?authuser=0&amp;hl=en&amp;rclk=1,44.8374,2.7851,"12420 Cantoin, France",,,,,,{},Quarry,6c658d26-6227-4402-bb6a-3be6a4ac40ea,data/images/train/6c658d26-6227-4402-bb6a-3be6a4ac40ea_44.8374_2.7851.png
Carrière Rouvier de Roquecanude,,https://www.google.com/maps/place/Carri%C3%A8re+Rouvier+de+Roquecanude/data=!4m7!3m6!1s0x12b24f93b3118b47:0x57ec0f1b2b90a4af!8m2!3d44.146033!4d2.9962439!16s%2Fg%2F11h01x86g9!19sChIJR4sRs5NPshIRr6SQKxsP7Fc?authuser=0&amp;hl=en&amp;rclk=1,44.146,2.9962,"Les Bressous, 12620 Saint-Beauzély, France",,,,,,,Quarry,9d0c3ab3-3ab1-4c41-9b0b-09fcadb70c43,data/images/train/9d0c3ab3-3ab1-4c41-9b0b-09fcadb70c43_44.146_2.9962.png
Las Tiurièras,,https://www.google.com/maps/place/Las+Tiuri%C3%A8ras/data=!4m7!3m6!1s0x12b2fde151a58de9:0xc44f6606c99cbb66!8m2!3d44.4808841!4d3.0326892!16s%2Fg%2F11f6519vjh!19sChIJ6Y2lUeH9shIRZrucyQZmT8Q?authuser=0&amp;hl=en&amp;rclk=1,44.4809,3.0327,"12130 Pomayrols, France",,,,,,{},Quarry,f3856405-57df-4355-bb70-3edf8be15bdb,data/images/train/f3856405-57df-4355-bb70-3edf8be15bdb_44.4809_3.0327.png
Las Bardièras,,https://www.google.com/maps/place/Las+Bardi%C3%A8ras/data=!4m7!3m6!1s0x12b2fd5ec32e43e9:0xeab9e52165fc653a!8m2!3d44.4742616!4d3.0317233!16s%2Fg%2F11ghs2ywk4!19sChIJ6UMuw179shIROmX8ZSHlueo?authuser=0&amp;hl=en&amp;rclk=1,44.4743,3.0317,"12130 Pomayrols, France",,,,,,{},Quarry,8e9459ee-6fd5-4207-85f8-c86d57fb53d0,data/images/train/8e9459ee-6fd5-4207-85f8-c86d57fb53d0_44.4743_3.0317.png
La Languedocienne de Marbre,,https://www.google.com/maps/place/La+Languedocienne+de+Marbre/data=!4m7!3m6!1s0x12b17211e3d6e4d7:0x3f7c09ccd90d9d11!8m2!3d43.501166!4d3.248121!16s%2Fg%2F11b6dnpmj0!19sChIJ1-TW4xFysRIREZ0N2cwJfD8?authuser=0&amp;hl=en&amp;rclk=1,43.5012,3.2481,"Rte de Gabian, 34480 Laurens, France",,,,,,,Quarry,d3162302-0629-468e-a744-51ddcbc5126b,data/images/train/d3162302-0629-468e-a744-51ddcbc5126b_43.5012_3.2481.png
Carrière CMCA Lozère,,https://www.google.com/maps/place/Carri%C3%A8re+CMCA+Loz%C3%A8re/data=!4m7!3m6!1s0x12b33d8b1282da8d:0xad909a21e69cc5d5!8m2!3d44.7153717!4d3.2738302!16s%2Fg%2F11fd_lyzg0!19sChIJjdqCEos9sxIR1cWc5iGakK0?authuser=0&amp;hl=en&amp;rclk=1,44.7154,3.2738,"6177 Rte d'Aubrac, 48130 Peyre en Aubrac, France",,#ERROR!,,,,,Quarry,91aa9229-fe32-408e-b417-8c8e4171fa3b,data/images/train/91aa9229-fe32-408e-b417-8c8e4171fa3b_44.7154_3.2738.png
S.A.R.L. Gilbert Alla,,https://www.google.com/maps/place/S.A.R.L.+Gilbert+Alla/data=!4m7!3m6!1s0x12b3c1639c27bbad:0x9e427d1108895af!8m2!3d43.9746629!4d3.3684148!16s%2Fg%2F1tkzjlgx!19sChIJrbsnnGPBsxIRr5WIENEn5Ak?authuser=0&amp;hl=en&amp;rclk=1,43.9747,3.3684,"Lot. le Ham. du Bourg 2, 12230 Sauclières, France",carriere-alla.fr,#ERROR!,,,,"{'Friday': ['8a.m.–12p.m.'], 'Saturday': ['Closed'], 'Sunday': ['Closed'], 'Monday': ['8a.m.–12p.m.', '1–5p.m.'], 'Tuesday': ['8a.m.–12p.m.', '1–5p.m.'], 'Wednesday': ['8a.m.–12p.m.', '1–5p.m.'], 'Thursday': ['8a.m.–12p.m.', '1–5p.m.']}",Quarry,0252e768-f846-423c-bead-edd0bad3720f,data/images/train/0252e768-f846-423c-bead-edd0bad3720f_43.9747_3.3684.png
Les schistes de Lachamp,,https://www.google.com/maps/place/Les+schistes+de+Lachamp/data=!4m7!3m6!1s0x12b31452f7bcc229:0x6a6f189367f2ec96!8m2!3d44.611206!4d3.370922!16s%2Fg%2F1yj4gytmp!19sChIJKcK891IUsxIRluzyZ5MYb2o?authuser=0&amp;hl=en&amp;rclk=1,44.6112,3.3709,"48100 Lachamp-Ribennes, France",carrieresdeschiste.wix.com,,,,,,Quarry,14b370b3-32a6-4dde-827c-6c5f4d6cab7d,data/images/train/14b370b3-32a6-4dde-827c-6c5f4d6cab7d_44.6112_3.3709.png
CMSE - Carrière d’Allenc,,https://www.google.com/maps/place/CMSE+-+Carri%C3%A8re+d%E2%80%99Allenc/data=!4m7!3m6!1s0x12b365f48422bd8d:0xde51283be23e2820!8m2!3d44.551336!4d3.650503!16s%2Fg%2F11llbhwh2n!19sChIJjb0ihPRlsxIRICg-4jsoUd4?authuser=0&amp;hl=en&amp;rclk=1,44.5513,3.6505,"lieu-dit Mas D, 48190 Allenc, France",,#ERROR!,,,,"{'Friday': ['8a.m.–12p.m.', '2–5p.m.'], 'Saturday': ['Closed'], 'Sunday': ['Closed'], 'Monday': ['8a.m.–12p.m.', '2–5p.m.'], 'Tuesday': ['8a.m.–12p.m.', '2–5p.m.'], 'Wednesday': ['8a.m.–12p.m.', '2–5p.m.'], 'Thursday': ['8a.m.–12p.m.', '2–5p.m.']}",Quarry,697f59fe-7cac-4442-bd16-f28e1739cb34,data/images/train/697f59fe-7cac-4442-bd16-f28e1739cb34_44.5513_3.6505.png
Carrière Fils,,https://www.google.com/maps/place/Carri%C3%A8re+Fils/data=!4m7!3m6!1s0x12b40544445a08c5:0xea16f657e53c7a17!8m2!3d43.8646514!4d3.8930353!16s%2Fg%2F1tq4hd8p!19sChIJxQhaREQFtBIRF3o85Vf2Fuo?authuser=0&amp;hl=en&amp;rclk=1,43.8647,3.893,"Av. des Embruscalles, 34270 Claret, France",,#ERROR!,,,,,Quarry,011f66c3-198c-4803-b53f-38aa32678bd5,data/images/train/011f66c3-198c-4803-b53f-38aa32678bd5_43.8647_3.893.png
Joffre Tp SARL,,https://www.google.com/maps/place/Joffre+Tp+SARL/data=!4m7!3m6!1s0x12b44c311362a05d:0xd9f2a5eb177fb3a3!8m2!3d44.1166648!4d4.2850422!16s%2Fg%2F11bzzxyxyr!19sChIJXaBiEzFMtBIRo7N_F-ul8tk?authuser=0&amp;hl=en&amp;rclk=1,44.1167,4.285,"Le Village, 30580 Seynes, France",joffre-tp.com,#ERROR!,,,,"{'Friday': ['7a.m.–12p.m.', '1–4:45p.m.'], 'Saturday': ['Closed'], 'Sunday': ['Closed'], 'Monday': ['7a.m.–12p.m.', '1–4:45p.m.'], 'Tuesday': ['7a.m.–12p.m.', '1–4:45p.m.'], 'Wednesday': ['7a.m.–12p.m.', '1–4:45p.m.'], 'Thursday': ['7a.m.–12p.m.', '1–4:45p.m.']}",Quarry,900a1e97-9cdd-4167-b44f-df2f2e4340fc,data/images/train/900a1e97-9cdd-4167-b44f-df2f2e4340fc_44.1167_4.285.png
Gsm Beaucaire,,https://www.google.com/maps/place/Gsm+Beaucaire/data=!4m7!3m6!1s0x12b5da3f10258cb7:0x9ae23c331bbb733b!8m2!3d43.8168056!4d4.6045329!16s%2Fg%2F1tkhf5y7!19sChIJt4wlED_atRIRO3O7GzM84po?authuser=0&amp;hl=en&amp;rclk=1,43.8168,4.6045,"Route St Gilles, 30300 Beaucaire, France",gsm-granulats.fr,#ERROR!,,,,"{'Friday': ['7:30a.m.–12p.m.', '1–4p.m.'], 'Saturday': ['Closed'], 'Sunday': ['Closed'], 'Monday': ['7:30a.m.–12p.m.', '1–4p.m.'], 'Tuesday': ['7:30a.m.–12p.m.', '1–4p.m.'], 'Wednesday': ['7:30a.m.–12p.m.', '1–4p.m.'], 'Thursday': ['7:30a.m.–12p.m.', '1–4p.m.']}",Quarry,dc313cad-c501-4cff-baf9-47ca4bce2433,data/images/train/dc313cad-c501-4cff-baf9-47ca4bce2433_43.8168_4.6045.png
Lafarge Granulats Sud,,https://www.google.com/maps/place/Lafarge+Granulats+Sud/data=!4m7!3m6!1s0x12b59449e0933849:0xc39e8eea46c80426!8m2!3d44.053264!4d4.775553!16s%2Fg%2F11b6dq2cgv!19sChIJSTiT4EmUtRIRJgTIRuqOnsM?authuser=0&amp;hl=en&amp;rclk=1,44.0533,4.7756,"6580 Route départementale, 30150 Roquemaure, France",,#ERROR!,,,,,Quarry,c2888a76-c0b4-4278-9009-3c95ce68e2a6,data/images/train/c2888a76-c0b4-4278-9009-3c95ce68e2a6_44.0533_4.7756.png
Le Relais Vêtements,,https://www.google.com/maps/place/Le+Relais+V%C3%AAtements/data=!4m7!3m6!1s0x12b2f515f9a370a5:0x84adb9d99b0cce39!8m2!3d44.3880862!4d2.824687!16s%2Fg%2F11v0__8xbv!19sChIJpXCj-RX1shIROc4Mm9m5rYQ?authuser=0&amp;hl=en&amp;rclk=1,44.3881,2.8247,"375 Rte de Palmas, 12310 Laissac-Sévérac l'Église, France",lerelais.org,,,,,,Recycling center,2353f1a7-ce74-4ff4-af7d-9a3be23ff8f7,data/images/train/2353f1a7-ce74-4ff4-af7d-9a3be23ff8f7_44.3881_2.8247.png
Calcaires Régionaux,,https://www.google.com/maps/place/Calcaires+R%C3%A9gionaux/data=!4m7!3m6!1s0x12b5dc7286f42f8d:0xd762d1384d11808f!8m2!3d43.7888031!4d4.6559782!16s%2Fg%2F11b6dq90fy!19sChIJjS_0hnLctRIRj4ARTTjRYtc?authuser=0&amp;hl=en&amp;rclk=1,43.7888,4.656,"Quartier, Chemin des Radoubs, 13150 Tarascon, France",calcairesregionaux.com,#ERROR!,,,,"{'Monday': ['7:30a.m.–12p.m.', '1–4:30p.m.'], 'Tuesday': ['7:30a.m.–12p.m.', '1–4:30p.m.'], 'Wednesday': ['7:30a.m.–12p.m.', '1–4:30p.m.'], 'Thursday': ['7:30a.m.–12p.m.', '1–4:30p.m.'], 'Friday': ['7:30a.m.–12p.m.', '1–4:30p.m.'], 'Saturday': ['Closed'], 'Sunday': ['Closed']}",Quarry,c0ac7b66-3ce4-4474-a044-9ff5ad2cd741,data/images/train/c0ac7b66-3ce4-4474-a044-9ff5ad2cd741_43.7888_4.656.png
Carrière de Boulbon - Bronzo Perasso,,https://www.google.com/maps/place/Carri%C3%A8re+de+Boulbon+-+Bronzo+Perasso/data=!4m7!3m6!1s0x12b5c3705a22af1d:0x9ed8a41fe9aa5032!8m2!3d43.8787049!4d4.6995097!16s%2Fg%2F11ry96m_84!19sChIJHa8iWnDDtRIRMlCq6R-k2J4?authuser=0&amp;hl=en&amp;rclk=1,43.8787,4.6995,"D81, 13150 Boulbon, France",bronzoperasso.fr,#ERROR!,,,,"{'Monday': ['7:30a.m.–12p.m.', '1–4p.m.'], 'Tuesday': ['7:30a.m.–12p.m.', '1–4p.m.'], 'Wednesday': ['7:30a.m.–12p.m.', '1–4p.m.'], 'Thursday': ['7:30a.m.–12p.m.', '1–4p.m.'], 'Friday': ['7:30a.m.–12p.m.', '1–4p.m.'], 'Saturday': ['Closed'], 'Sunday': ['Closed']}",Gravel pit,925b9eba-024d-4ab8-92a3-b28b434b0eab,data/images/train/925b9eba-024d-4ab8-92a3-b28b434b0eab_43.8787_4.6995.png
Sables De Montmou,,https://www.google.com/maps/place/Sables+De+Montmou/data=!4m7!3m6!1s0x12b5a275edc1883f:0x1d8c0f8df702b825!8m2!3d44.2211256!4d4.7283342!16s%2Fg%2F11b6dp9qzx!19sChIJP4jB7XWitRIRJbgC940PjB0?authuser=0&amp;hl=en&amp;rclk=1,44.2211,4.7283,"Quartier St Loup, 890 Chem. de Derrière Montmou, 84550 Mornas, France",calcairesregionaux.com,#ERROR!,,,,"{'Monday': ['7:30a.m.–12p.m.', '1–4:30p.m.'], 'Tuesday': ['7:30a.m.–12p.m.', '1–4:30p.m.'], 'Wednesday': ['7:30a.m.–12p.m.', '1–4:30p.m.'], 'Thursday': ['7:30a.m.–12p.m.', '1–4:30p.m.'], 'Friday': ['7:30a.m.–12p.m.', '1–4:30p.m.'], 'Saturday': ['Closed'], 'Sunday': ['Closed']}",Quarry,2e7a7379-c1a8-4a39-b6f8-dd6debb5205c,data/images/train/2e7a7379-c1a8-4a39-b6f8-dd6debb5205c_44.2211_4.7283.png
Calcaires Régionaux,,https://www.google.com/maps/place/Calcaires+R%C3%A9gionaux/data=!4m7!3m6!1s0x12b5f29fa9669b37:0x4f0b7cbd6d2c1274!8m2!3d43.9686445!4d4.8965469!16s%2Fg%2F1td3_nv7!19sChIJN5tmqZ_ytRIRdBIsbb18C08?authuser=0&amp;hl=en&amp;rclk=1,43.9686,4.8965,"281 Chem. du Bac de Bompas, 84270 Vedène, France",calcairesregionaux.com,#ERROR!,,,,"{'Monday': ['7:30a.m.–12p.m.', '1–5p.m.'], 'Tuesday': ['7:30a.m.–12p.m.', '1–5p.m.'], 'Wednesday': ['7:30a.m.–12p.m.', '1–5p.m.'], 'Thursday': ['7:30a.m.–12p.m.', '1–5p.m.'], 'Friday': ['7:30a.m.–12p.m.', '1–5p.m.'], 'Saturday': ['Closed'], 'Sunday': ['Closed']}",Quarry,05058205-2c40-451c-90d3-94ab50a33306,data/images/train/05058205-2c40-451c-90d3-94ab50a33306_43.9686_4.8965.png
Midi-Concassage - Carrière de Cazan,,https://www.google.com/maps/place/Midi-Concassage+-+Carri%C3%A8re+de+Cazan/data=!4m7!3m6!1s0x12ca02d296875ecf:0xdcb2f6decd8caf64!8m2!3d43.687421!4d5.204327!16s%2Fg%2F11b7jwdpyv!19sChIJz16HltICyhIRZK-Mzd72stw?authuser=0&amp;hl=en&amp;rclk=1,43.6874,5.2043,"lieu-dit, 13410 Lambesc, France",midi-concassage.fr,#ERROR!,,,,"{'Monday': ['7a.m.–12p.m.', '1–4p.m.'], 'Tuesday': ['7a.m.–12p.m.', '1–4p.m.'], 'Wednesday': ['7a.m.–12p.m.', '1–4p.m.'], 'Thursday': ['7a.m.–12p.m.', '1–4p.m.'], 'Friday': ['7a.m.–12p.m.', '1–3:30p.m.'], 'Saturday': ['Closed'], 'Sunday': ['Closed']}",Quarry,9b0243b3-d788-4f80-bbca-d1c4651fce50,data/images/train/9b0243b3-d788-4f80-bbca-d1c4651fce50_43.6874_5.2043.png
Calcaires Régionaux,,https://www.google.com/maps/place/Calcaires+R%C3%A9gionaux/data=!4m7!3m6!1s0x12c992e83525ac0b:0x3927cddd02a0a47e!8m2!3d43.4746624!4d5.4066044!16s%2Fg%2F1tm1mncf!19sChIJC6wlNeiSyRIRfqSgAt3NJzk?authuser=0&amp;hl=en&amp;rclk=1,43.4747,5.4066,"Route de Gardanne, Chem. des 3 Pigeons, 13080, France",calcairesregionaux.com,#ERROR!,,,,"{'Monday': ['7:30a.m.–12p.m.', '1:30–5p.m.'], 'Tuesday': ['7:30a.m.–12p.m.', '1:30–5p.m.'], 'Wednesday': ['7:30a.m.–12p.m.', '1:30–5p.m.'], 'Thursday': ['7:30a.m.–12p.m.', '1:30–5p.m.'], 'Friday': ['7:30a.m.–12p.m.', '1:30–5p.m.'], 'Saturday': ['Closed'], 'Sunday': ['Closed']}",Quarry,ac254034-75fd-4860-b271-51e94514ce6a,data/images/train/ac254034-75fd-4860-b271-51e94514ce6a_43.4747_5.4066.png
CMSE - Perasso - Carrière et usine de préfabrication de Saint-Tronc,,https://www.google.com/maps/place/CMSE+-+Perasso+-+Carri%C3%A8re+et+usine+de+pr%C3%A9fabrication+de+Saint-Tronc/data=!4m7!3m6!1s0x12c9b8dbca2fa45f:0x450c333c52b49a36!8m2!3d43.2639385!4d5.433292!16s%2Fg%2F1tggdnhb!19sChIJX6Qvytu4yRIRNpq0UjwzDEU?authuser=0&amp;hl=en&amp;rclk=1,43.2639,5.4333,"81 Chem. du Vallon de Toulouse, 13010 Marseille, France",,#ERROR!,,,,"{'Monday': ['6:30a.m.–12p.m.', '1–4p.m.'], 'Tuesday': ['6:30a.m.–12p.m.', '1–4p.m.'], 'Wednesday': ['6:30a.m.–12p.m.', '1–4p.m.'], 'Thursday': ['6:30a.m.–12p.m.', '1–4p.m.'], 'Friday': ['6:30a.m.–12p.m.', '1–4p.m.'], 'Saturday': ['Closed'], 'Sunday': ['Closed']}",Quarry,f867911e-517a-4d2a-98be-fd3ee60a12a8,data/images/train/f867911e-517a-4d2a-98be-fd3ee60a12a8_43.2639_5.4333.png
Bonnifay,,https://www.google.com/maps/place/Bonnifay/data=!4m7!3m6!1s0x12c9a5c0fb7e4be9:0xd5719cbcc47ed18c!8m2!3d43.2135189!4d5.627132!16s%2Fg%2F11hyl6c1h3!19sChIJ6Ut--8ClyRIRjNF-xLyccdU?authuser=0&amp;hl=en&amp;rclk=1,43.2135,5.6271,"1 Chem. de Saint-Antoine, 13600 La Ciotat, France",,#ERROR!,,,,,Quarry,5abfb6c4-4a1e-4e4f-b95a-93453c531b77,data/images/train/5abfb6c4-4a1e-4e4f-b95a-93453c531b77_43.2135_5.6271.png
CMSE - Carrière de Mallefougasse,,https://www.google.com/maps/place/CMSE+-+Carri%C3%A8re+de+Mallefougasse/data=!4m7!3m6!1s0x12cbbae8c2a490eb:0x769a75f073041267!8m2!3d44.072215!4d5.93063!16s%2Fg%2F1xtdzsbg!19sChIJ65Ckwui6yxIRZxIEc_B1mnY?authuser=0&amp;hl=en&amp;rclk=1,44.0722,5.9306,"Charmayon, 04230 Mallefougasse-Augès, France",,#ERROR!,,,,"{'Monday': ['7:30a.m.–12p.m.', '1:15–4:45p.m.'], 'Tuesday': ['7:30a.m.–12p.m.', '1:15–4:45p.m.'], 'Wednesday': ['7:30a.m.–12p.m.', '1:15–4:45p.m.'], 'Thursday': ['7:30a.m.–12p.m.', '1:15–4:45p.m.'], 'Friday': ['7:30a.m.–12p.m.', '1:15–4p.m.'], 'Saturday': ['Closed'], 'Sunday': ['Closed']}",Quarry,7579170f-637c-48aa-ae7b-53af1d9da700,data/images/train/7579170f-637c-48aa-ae7b-53af1d9da700_44.0722_5.9306.png
Carrière de Braux,,https://www.google.com/maps/place/Carri%C3%A8re+de+Braux/data=!4m7!3m6!1s0x12cc6bbfc1774ef3:0xa32f8bebc31e4c63!8m2!3d43.9668854!4d6.6651765!16s%2Fg%2F11b6dghz9z!19sChIJ8053wb9rzBIRY0wew-uLL6M?authuser=0&amp;hl=en&amp;rclk=1,43.9669,6.6652,"Carrière de Braux, 04240 Annot, France",cmm-cozzi.fr,#ERROR!,,,,,Quarry,6041958b-8984-4dd7-9d55-d0ead88e7512,data/images/train/6041958b-8984-4dd7-9d55-d0ead88e7512_43.9669_6.6652.png
carrieres de provence,,https://www.google.com/maps/place/carrieres+de+provence/data=!4m7!3m6!1s0x12b5e12887d7f607:0xaf8a4d967d4ae64b!8m2!3d43.7291797!4d4.7451284!16s%2Fg%2F11hz_21ltz!19sChIJB_bXhyjhtRIRS-ZKfZZNiq8?authuser=0&amp;hl=en&amp;rclk=1,43.7292,4.7451,"Route de Maussane, 13990 Fontvieille, France",carrieresdeprovence.com,#ERROR!,,,,"{'Monday': ['8a.m.–12p.m.', '1:30–5p.m.'], 'Tuesday': ['8a.m.–12p.m.', '1:30–5p.m.'], 'Wednesday': ['8a.m.–12p.m.', '1:30–5p.m.'], 'Thursday': ['8a.m.–12p.m.', '1:30–5p.m.'], 'Friday': ['8a.m.–12:30p.m.'], 'Saturday': ['Closed'], 'Sunday': ['Closed']}",Quarry,c622b872-e912-468f-8be4-8bf9b219a383,data/images/train/c622b872-e912-468f-8be4-8bf9b219a383_43.7292_4.7451.png
Mistral Industries,,https://www.google.com/maps/place/Mistral+Industries/data=!4m7!3m6!1s0x12b5d8bf8dc4f36d:0x170c5159271e53f1!8m2!3d43.7315253!4d4.6215807!16s%2Fg%2F1vx88925!19sChIJbfPEjb_YtRIR8VMeJ1lRDBc?authuser=0&amp;hl=en&amp;rclk=1,43.7315,4.6216,"Chem. des Segonnaux - VC13, 13200 Arles, France",,#ERROR!,,,,,Quarry,837b8bde-8816-400f-91e2-a895c2e63d48,data/images/train/837b8bde-8816-400f-91e2-a895c2e63d48_43.7315_4.6216.png
Carrière Pradier,,https://www.google.com/maps/place/Carri%C3%A8re+Pradier/data=!4m7!3m6!1s0x12b5a151724a59cb:0xc9b49dadefa362cd!8m2!3d44.235424!4d4.6908397!16s%2Fg%2F11lslwzwhp!19sChIJy1lKclGhtRIRzWKj762dtMk?authuser=0&amp;hl=en&amp;rclk=1,44.2354,4.6908,"Unnamed Road, 84430 Mondragon, France",,#ERROR!,,,,"{'Monday': ['7a.m.–6p.m.'], 'Tuesday': ['7a.m.–6p.m.'], 'Wednesday': ['7a.m.–6p.m.'], 'Thursday': ['7a.m.–6p.m.'], 'Friday': ['7a.m.–6p.m.'], 'Saturday': ['Closed'], 'Sunday': ['Closed']}",Quarry,c6572b08-497a-4fca-b1f7-dfee74615611,data/images/train/c6572b08-497a-4fca-b1f7-dfee74615611_44.2354_4.6908.png
Agregats Services,,https://www.google.com/maps/place/Agregats+Services/data=!4m7!3m6!1s0x12b5a11de6d915c7:0x896a280dc94acccf!8m2!3d44.265178!4d4.671249!16s%2Fg%2F1tdrb7q3!19sChIJxxXZ5h2htRIRz8xKyQ0oaok?authuser=0&amp;hl=en&amp;rclk=1,44.2652,4.6712,"Quartier Les Combes, 84840 Lamotte-du-Rhône, France",,#ERROR!,,,,,Quarry,8d27c054-81c5-4d0a-9f43-7a5ff4a4eb08,data/images/train/8d27c054-81c5-4d0a-9f43-7a5ff4a4eb08_44.2652_4.6712.png
Carrière Pradier,,https://www.google.com/maps/place/Carri%C3%A8re+Pradier/data=!4m7!3m6!1s0x12b5a1bc51e046ad:0xde9a69062acd844d!8m2!3d44.2501847!4d4.7085277!16s%2Fg%2F11n6rd3v3w!19sChIJrUbgUbyhtRIRTYTNKgZpmt4?authuser=0&amp;hl=en&amp;rclk=1,44.2502,4.7085,"Site Industriel le Millénaire, Le Pass. d'Arles, 84430 Mondragon, France",,#ERROR!,,,,,Quarry,af3905aa-af19-476a-b3ad-9b0a4a8a7200,data/images/train/af3905aa-af19-476a-b3ad-9b0a4a8a7200_44.2502_4.7085.png
Calcaires Régionaux,,https://www.google.com/maps/place/Calcaires+R%C3%A9gionaux/data=!4m7!3m6!1s0x12b599bddf6d77b5:0x2b658737534cb3cf!8m2!3d44.2210924!4d4.7281742!16s%2Fg%2F11g0g_8b80!19sChIJtXdt372ZtRIRz7NMUzeHZSs?authuser=0&amp;hl=en&amp;rclk=1,44.2211,4.7282,"84550 Mornas, France",,,,,,"{'Monday': ['7:30a.m.–12p.m.', '1–4:30p.m.'], 'Tuesday': ['7:30a.m.–12p.m.', '1–4:30p.m.'], 'Wednesday': ['7:30a.m.–12p.m.', '1–4:30p.m.'], 'Thursday': ['7:30a.m.–12p.m.', '1–4:30p.m.'], 'Friday': ['7:30a.m.–12p.m.', '1–4:30p.m.'], 'Saturday': ['Closed'], 'Sunday': ['Closed']}",Quarry,71325084-801f-4148-9451-507c2ec826e4,data/images/train/71325084-801f-4148-9451-507c2ec826e4_44.2211_4.7282.png
Carrière de Boncavaï,,https://www.google.com/maps/place/Carri%C3%A8re+de+Boncava%C3%AF/data=!4m7!3m6!1s0x12b59feb7c3d0e95:0x7f9b045ac999bce2!8m2!3d44.2285991!4d4.7605529!16s%2Fg%2F11kq2zywc5!19sChIJlQ49fOuftRIR4ryZyVoEm38?authuser=0&amp;hl=en&amp;rclk=1,44.2286,4.7606,"315 Chem. de la Gayanne, 84550 Mornas, France",delorme-entreprises.fr,#ERROR!,,,,,Quarry,3a9b12f9-7d53-4fcd-8d92-60d9059a7027,data/images/train/3a9b12f9-7d53-4fcd-8d92-60d9059a7027_44.2286_4.7606.png
Ricard M Et Ricard K,,https://www.google.com/maps/place/Ricard+M+Et+Ricard+K/data=!4m7!3m6!1s0x12b598c8f88005a5:0x6693264bd337b084!8m2!3d44.2170753!4d4.7508769!16s%2Fg%2F1tgttb2_!19sChIJpQWA-MiYtRIRhLA300smk2Y?authuser=0&amp;hl=en&amp;rclk=1,44.2171,4.7509,"Rte d'Uchaux, 84550 Mornas, France",,#ERROR!,,,,"{'Monday': ['7:30a.m.–12p.m.', '1:30–5p.m.'], 'Tuesday': ['7:30a.m.–12p.m.', '1:30–5p.m.'], 'Wednesday': ['7:30a.m.–12p.m.', '1:30–5p.m.'], 'Thursday': ['7:30a.m.–12p.m.', '1:30–5p.m.'], 'Friday': ['7:30a.m.–12p.m.', '1:30–4p.m.'], 'Saturday': ['Closed'], 'Sunday': ['Closed']}",Quarry,e9f9349e-ccf5-4f70-a869-cd9a97e6b126,data/images/train/e9f9349e-ccf5-4f70-a869-cd9a97e6b126_44.2171_4.7509.png
Delorme lampourdier,,https://www.google.com/maps/place/Delorme+lampourdier/data=!4m7!3m6!1s0x12b597b60caa348f:0xd42b0d8fbe7df345!8m2!3d44.0876505!4d4.7868351!16s%2Fg%2F11grv2h4qn!19sChIJjzSqDLaXtRIRRfN9vo8NK9Q?authuser=0&amp;hl=en&amp;rclk=1,44.0877,4.7868,"Unnamed Road, 84100 Orange, France",,,,,,"{'Monday': ['7:30a.m.–12p.m.', '1–4:30p.m.'], 'Tuesday': ['7:30a.m.–12p.m.', '1–4:30p.m.'], 'Wednesday': ['7:30a.m.–12p.m.', '1–4:30p.m.'], 'Thursday': ['7:30a.m.–12p.m.', '1–4:30p.m.'], 'Friday': ['7:30a.m.–12p.m.', '1–3:30p.m.'], 'Saturday': ['Closed'], 'Sunday': ['Closed']}",Quarry,57b91207-e56f-4b24-a57a-1d420e884039,data/images/train/57b91207-e56f-4b24-a57a-1d420e884039_44.0877_4.7868.png
Société des Carrières Vauclusiennes carrière de la combe d'arnavel,,https://www.google.com/maps/place/Soci%C3%A9t%C3%A9+des+Carri%C3%A8res+Vauclusiennes+carri%C3%A8re+de+la+combe+d%27arnavel/data=!4m7!3m6!1s0x12b596df8157f8a7:0x9868fd3c92d8046d!8m2!3d44.0671119!4d4.7943658!16s%2Fg%2F1tf20zhh!19sChIJp_hXgd-WtRIRbQTYkjz9aJg?authuser=0&amp;hl=en&amp;rclk=1,44.0671,4.7944,"2492 Route de Roquemaure, 84230 Châteauneuf-du-Pape, France",,,,,,"{'Monday': ['7:30a.m.–12p.m.', '1–4:30p.m.'], 'Tuesday': ['7:30a.m.–12p.m.', '1–4:30p.m.'], 'Wednesday': ['7:30a.m.–12p.m.', '1–4:30p.m.'], 'Thursday': ['7:30a.m.–12p.m.', '1–4:30p.m.'], 'Friday': ['7:30a.m.–12p.m.', '1–3p.m.'], 'Saturday': ['Closed'], 'Sunday': ['Closed']}",Quarry,9b31c205-8712-460f-ae87-a7e103de323c,data/images/train/9b31c205-8712-460f-ae87-a7e103de323c_44.0671_4.7944.png
Haladjian Minerals Solutions,,https://www.google.com/maps/place/Haladjian+Minerals+Solutions/data=!4m7!3m6!1s0x12b5931fbf3cf6db:0x7d516e26feb0807!8m2!3d44.0251066!4d4.8723281!16s%2Fg%2F11mq2vy07n!19sChIJ2_Y8vx-TtRIRBwjrb-IW1Qc?authuser=0&amp;hl=en&amp;rclk=1,44.0251,4.8723,"1951 Av. d'Orange, 84700 Sorgues, France",haladjian-minerals.fr,#ERROR!,,,,"{'Monday': ['8a.m.–12p.m.', '2–6p.m.'], 'Tuesday': ['8a.m.–12p.m.', '2–6p.m.'], 'Wednesday': ['8a.m.–12p.m.', '2–6p.m.'], 'Thursday': ['8a.m.–12p.m.', '2–6p.m.'], 'Friday': ['8a.m.–12p.m.', '2–6p.m.'], 'Saturday': ['Closed'], 'Sunday': ['Closed']}",Quarry,069556ba-a718-48b7-bc49-89c44be7adb1,data/images/train/069556ba-a718-48b7-bc49-89c44be7adb1_44.0251_4.8723.png
Société des Carrieres Vauclusiennes,,https://www.google.com/maps/place/Soci%C3%A9t%C3%A9+des+Carrieres+Vauclusiennes/data=!4m7!3m6!1s0x12b5f284a28eab93:0x353d7ed3427dca14!8m2!3d43.9564637!4d4.9267507!16s%2Fg%2F1tcyn346!19sChIJk6uOooTytRIRFMp9QtN-PTU?authuser=0&amp;hl=en&amp;rclk=1,43.9565,4.9268,"115 Rue de la Source, 84450 Saint-Saturnin-lès-Avignon, France",scv84.fr,#ERROR!,,,,"{'Monday': ['8a.m.–6p.m.'], 'Tuesday': ['8a.m.–6p.m.'], 'Wednesday': ['8a.m.–6p.m.'], 'Thursday': ['8a.m.–6p.m.'], 'Friday': ['8a.m.–6p.m.'], 'Saturday': ['Closed'], 'Sunday': ['Closed']}",Quarry,bf7db65e-4288-4dbd-bddf-28eda309fb0f,data/images/train/bf7db65e-4288-4dbd-bddf-28eda309fb0f_43.9565_4.9268.png
Cairanne Concassage,,https://www.google.com/maps/place/Cairanne+Concassage/data=!4m7!3m6!1s0x12b59cbb20baf909:0x560de7defc2781b7!8m2!3d44.2229616!4d4.9169134!16s%2Fg%2F11btm0f4rr!19sChIJCfm6ILuctRIRt4En_N7nDVY?authuser=0&amp;hl=en&amp;rclk=1,44.223,4.9169,"785 Chem. du Thor, 84290 Cairanne, France",,#ERROR!,,,,,Quarry,d36b9fb9-fdb9-4ca9-86e3-c4ee2093e476,data/images/train/d36b9fb9-fdb9-4ca9-86e3-c4ee2093e476_44.223_4.9169.png
Sibelco,,https://www.google.com/maps/place/Sibelco/data=!4m7!3m6!1s0x12b58d1c5c44417d:0x9b613278d6e40409!8m2!3d44.0100593!4d4.9306411!16s%2Fg%2F1td8g58j!19sChIJfUFEXByNtRIRCQTk1ngyYZs?authuser=0&amp;hl=en&amp;rclk=1,44.0101,4.9306,"117 Chem. des Vertes Rives, 84320 Entraigues-sur-la-Sorgue, France",fr.sibelco.com,#ERROR!,,,,"{'Monday': ['8a.m.–5p.m.'], 'Tuesday': ['8a.m.–5p.m.'], 'Wednesday': ['8a.m.–5p.m.'], 'Thursday': ['8a.m.–5p.m.'], 'Friday': ['8a.m.–5p.m.'], 'Saturday': ['Closed'], 'Sunday': ['Closed']}",Quarry,ac6e232a-1afa-4d5d-9a81-7c8a5552a0c2,data/images/train/ac6e232a-1afa-4d5d-9a81-7c8a5552a0c2_44.0101_4.9306.png
DELORME / LOKIS,,https://www.google.com/maps/place/DELORME+%2F+LOKIS/data=!4m7!3m6!1s0x12b5f9e2a33c57cf:0x341230e768dbc84a!8m2!3d43.7829246!4d5.0207532!16s%2Fg%2F11rvmdyrqz!19sChIJz1c8o-L5tRIRSsjbaOcwEjQ?authuser=0&amp;hl=en&amp;rclk=1,43.7829,5.0208,"Chemin du ball trapp, Rte d'Eygalières, 13660 Orgon, France",delorme-entreprises.fr,#ERROR!,,,,"{'Monday': ['7a.m.–4:30p.m.'], 'Tuesday': ['7a.m.–4:30p.m.'], 'Wednesday': ['7a.m.–4:30p.m.'], 'Thursday': ['7a.m.–4:30p.m.'], 'Friday': ['7a.m.–3:30p.m.'], 'Saturday': ['Closed'], 'Sunday': ['Closed']}",Quarry,c65fc321-fc7d-44d6-b346-52e84c552ba5,data/images/train/c65fc321-fc7d-44d6-b346-52e84c552ba5_43.7829_5.0208.png
Gravisud Sas,,https://www.google.com/maps/place/Gravisud+Sas/data=!4m7!3m6!1s0x12b5f777319d0c2f:0x404608dddf0c7391!8m2!3d43.8665222!4d5.0294902!16s%2Fg%2F1tcx9cyv!19sChIJLwydMXf3tRIRkXMM390IRkA?authuser=0&amp;hl=en&amp;rclk=1,43.8665,5.0295,"4900 Chem. des Châteaux, 84300 Cavaillon, France",gravisud.fr,#ERROR!,,,,"{'Monday': ['7:30a.m.–12p.m.', '1–4:45p.m.'], 'Tuesday': ['7:30a.m.–12p.m.', '1–4:45p.m.'], 'Wednesday': ['7:30a.m.–12p.m.', '1–4:45p.m.'], 'Thursday': ['7:30a.m.–12p.m.', '1–4:45p.m.'], 'Friday': ['7:30a.m.–12p.m.', '1–3:45p.m.'], 'Saturday': ['Closed'], 'Sunday': ['Closed']}",Quarry,6634a10b-2222-43d8-bcc9-96a3b6eea9b8,data/images/train/6634a10b-2222-43d8-bcc9-96a3b6eea9b8_43.8665_5.0295.png
Lhoist | Ensuès,,https://www.google.com/maps/place/Lhoist+%7C+Ensu%C3%A8s/data=!4m7!3m6!1s0x12c9dd81d4cb41ab:0x116a4553ee171fb7!8m2!3d43.3645401!4d5.1852904!16s%2Fg%2F11c2mcxrl6!19sChIJq0HL1IHdyRIRtx8X7lNFahE?authuser=0&amp;hl=en&amp;rclk=1,43.3645,5.1853,"D9, 13820 Ensuès-la-Redonne, France",lhoist.com,,,,,"{'Monday': ['8a.m.–6p.m.'], 'Tuesday': ['8a.m.–6p.m.'], 'Wednesday': ['8a.m.–6p.m.'], 'Thursday': ['8a.m.–6p.m.'], 'Friday': ['8a.m.–6p.m.'], 'Saturday': ['Closed'], 'Sunday': ['Closed']}",Quarry,4e81234a-4e72-49ee-bc2b-c4822226f097,data/images/train/4e81234a-4e72-49ee-bc2b-c4822226f097_43.3645_5.1853.png
Lafarge Granulats Sud,,https://www.google.com/maps/place/Lafarge+Granulats+Sud/data=!4m7!3m6!1s0x12ca00b900979c4b:0xc792387f0fb75567!8m2!3d43.7471837!4d5.0504246!16s%2Fg%2F11b6d07vyz!19sChIJS5yXALkAyhIRZ1W3D384ksc?authuser=0&amp;hl=en&amp;rclk=1,43.7472,5.0504,"Quartier du Grand Vallon, 13560 Sénas, France",lafarge.fr,#ERROR!,,,,"{'Monday': ['7:30–11:50a.m.', '1–4:15p.m.'], 'Tuesday': ['7:30–11:50a.m.', '1–4:15p.m.'], 'Wednesday': ['7:30–11:50a.m.', '1–4:15p.m.'], 'Thursday': ['7:30–11:50a.m.', '1–4:15p.m.'], 'Friday': ['7:30–11:50a.m.', '1–4:15p.m.'], 'Saturday': ['Closed'], 'Sunday': ['Closed']}",Quarry,0785f13a-1cad-439d-897e-9c14eb328248,data/images/train/0785f13a-1cad-439d-897e-9c14eb328248_43.7472_5.0504.png
Carrière de Cabedan,,https://www.google.com/maps/place/Carri%C3%A8re+de+Cabedan/data=!4m7!3m6!1s0x12ca07bd6f8e2655:0x709d796a0780fd5b!8m2!3d43.8040271!4d5.0813827!16s%2Fg%2F11bzyp6b99!19sChIJVSaOb70HyhIRW_2AB2p5nXA?authuser=0&amp;hl=en&amp;rclk=1,43.804,5.0814,"521 Chem. des Bartheyes, 84460 Cheval-Blanc, France",,,,,,,Quarry,c253c497-91d0-4c91-82fb-dd6d5fd867fa,data/images/train/c253c497-91d0-4c91-82fb-dd6d5fd867fa_43.804_5.0814.png
Valancourt,,https://www.google.com/maps/place/Valancourt/data=!4m7!3m6!1s0x12ca078c4b3fa4bb:0x98f4fb52e50b6f1d!8m2!3d43.803818!4d5.082615!16s%2Fg%2F11hf97jjx_!19sChIJu6Q_S4wHyhIRHW8L5VL79Jg?authuser=0&amp;hl=en&amp;rclk=1,43.8038,5.0826,"521 Chem. des Bartheyes, 84460 Cheval-Blanc, France",,,,,,,Quarry,4d08489d-274d-4f84-bcff-21e87a4d1eff,data/images/train/4d08489d-274d-4f84-bcff-21e87a4d1eff_43.8038_5.0826.png
Carrières de St Gens,,https://www.google.com/maps/place/Carri%C3%A8res+de+St+Gens/data=!4m7!3m6!1s0x12ca0b5ea2812055:0x6cf6ca00059fb1ef!8m2!3d43.9586982!4d5.1365895!16s%2Fg%2F1trl7y_2!19sChIJVSCBol4LyhIR77GfBQDK9mw?authuser=0&amp;hl=en&amp;rclk=1,43.9587,5.1366,"84210 Le Beaucet, France",carriere-stgens.com,#ERROR!,,,,"{'Monday': ['8a.m.–12p.m.', '2–6p.m.'], 'Tuesday': ['8a.m.–12p.m.', '2–6p.m.'], 'Wednesday': ['8a.m.–12p.m.', '2–6p.m.'], 'Thursday': ['8a.m.–12p.m.', '2–6p.m.'], 'Friday': ['8a.m.–12p.m.', '2–6p.m.'], 'Saturday': ['Closed'], 'Sunday': ['Closed']}",Quarry,70f56cc3-302f-4425-b3d9-4a60a2da99e5,data/images/train/70f56cc3-302f-4425-b3d9-4a60a2da99e5_43.9587_5.1366.png
Carrières Gontéro,,https://www.google.com/maps/place/Carri%C3%A8res+Gont%C3%A9ro/data=!4m7!3m6!1s0x12c9e7465febb451:0x1b59fe7eb5310050!8m2!3d43.3834529!4d5.1557579!16s%2Fg%2F1tyh4kq8!19sChIJUbTrX0bnyRIRUAAxtX7-WRs?authuser=0&amp;hl=en&amp;rclk=1,43.3835,5.1558,"Chem. de la Carrière, 13220 Mede (La, France",,#ERROR!,,,,"{'Monday': ['6:30a.m.–12p.m.', '1:30–4:30p.m.'], 'Tuesday': ['6:30a.m.–12p.m.', '1:30–4:30p.m.'], 'Wednesday': ['6:30a.m.–12p.m.', '1:30–4:30p.m.'], 'Thursday': ['6:30a.m.–12p.m.', '1:30–4:30p.m.'], 'Friday': ['6:30a.m.–12p.m.', '1:30–3:30p.m.'], 'Saturday': ['Closed'], 'Sunday': ['Closed']}",Quarry,d34afd03-6933-440d-a2d5-c841f52cf511,data/images/train/d34afd03-6933-440d-a2d5-c841f52cf511_43.3835_5.1558.png
Sarl Marbrerie Mathurin,,https://www.google.com/maps/place/Sarl+Marbrerie+Mathurin/data=!4m7!3m6!1s0x12c9fe534c3afe47:0x9d47b34e78c9e50d!8m2!3d43.6389622!4d5.0954393!16s%2Fg%2F1tmwkf6y!19sChIJR_46TFP-yRIRDeXJeE6zR50?authuser=0&amp;hl=en&amp;rclk=1,43.639,5.0954,"77 Bd Victor Joly, 13300 Salon-de-Provence, France",,#ERROR!,,,,,Quarry,aa25ad74-5837-4e62-a172-43279a988785,data/images/train/aa25ad74-5837-4e62-a172-43279a988785_43.639_5.0954.png
Lhoist | Robion,,https://www.google.com/maps/place/Lhoist+%7C+Robion/data=!4m7!3m6!1s0x12ca0929ac438c6f:0x16f7226a107cc131!8m2!3d43.8716577!4d5.1153716!16s%2Fg%2F11b6czcl4p!19sChIJb4xDrCkJyhIRMcF8EGoi9xY?authuser=0&amp;hl=en&amp;rclk=1,43.8717,5.1154,"1990 Bis, Route d'Avignon, 84440 Robion, France",,#ERROR!,,,,,Quarry,4c1e6dc9-c8fe-493e-b16a-3e2d38ec37f2,data/images/train/4c1e6dc9-c8fe-493e-b16a-3e2d38ec37f2_43.8717_5.1154.png
Sylvestre et Cie,,https://www.google.com/maps/place/Sylvestre+et+Cie/data=!4m7!3m6!1s0x12ca0a6dc7fcb281:0xae40f5904690c0d!8m2!3d43.930228!4d5.0722138!16s%2Fg%2F11b6dpgdq2!19sChIJgbL8x20KyhIRDQxpBFkP5Ao?authuser=0&amp;hl=en&amp;rclk=1,43.9302,5.0722,"Chem. de Rigaulte, 84800 L'Isle-sur-la-Sorgue, France",,,,,,,Quarry,31cb3179-16b6-4c14-a2bd-700b993cdd59,data/images/train/31cb3179-16b6-4c14-a2bd-700b993cdd59_43.9302_5.0722.png
PROROCH L'Atelier des Carrières Maubec,,https://www.google.com/maps/place/PROROCH+L%27Atelier+des+Carri%C3%A8res+Maubec/data=!4m7!3m6!1s0x12ca08d97de215cd:0x880ebe0371be0ddd!8m2!3d43.865325!4d5.1379539!16s%2Fg%2F11b6dd8kt_!19sChIJzRXifdkIyhIR3Q2-cQO-Dog?authuser=0&amp;hl=en&amp;rclk=1,43.8653,5.138,"500A Rte de Cavaillon, 84660 Maubec, France",proroch.com,#ERROR!,,,,"{'Monday': ['8a.m.–12p.m.', '1:30–5p.m.'], 'Tuesday': ['8a.m.–12p.m.', '1:30–5p.m.'], 'Wednesday': ['8a.m.–12p.m.', '1:30–5p.m.'], 'Thursday': ['8a.m.–12p.m.', '1:30–5p.m.'], 'Friday': ['8a.m.–12p.m.', '1:30–5p.m.'], 'Saturday': ['Closed'], 'Sunday': ['Closed']}",Quarry,483ce10d-990c-43bc-9361-c4f8140b7ee3,data/images/train/483ce10d-990c-43bc-9361-c4f8140b7ee3_43.8653_5.138.png
Lafarge Granulats Sud,,https://www.google.com/maps/place/Lafarge+Granulats+Sud/data=!4m7!3m6!1s0x12ca1052e8326e61:0x53a2eafe2a443c9f!8m2!3d43.8586883!4d5.2655596!16s%2Fg%2F11b6czc1_0!19sChIJYW4y6FIQyhIRnzxEKv7qolM?authuser=0&amp;hl=en&amp;rclk=1,43.8587,5.2656,"Quartier St Anne, 84220 Goult, France",,#ERROR!,,,,,Quarry,de00a7ff-95bf-4152-8658-aff8faaec415,data/images/train/de00a7ff-95bf-4152-8658-aff8faaec415_43.8587_5.2656.png
Bétons Granulats Sylvestre,,https://www.google.com/maps/place/B%C3%A9tons+Granulats+Sylvestre/data=!4m7!3m6!1s0x12ca092a2ec5b0bb:0xb36159798f6bf74e!8m2!3d43.8887453!4d5.1389546!16s%2Fg%2F1vd3xwlf!19sChIJu7DFLioJyhIRTvdrj3lZYbM?authuser=0&amp;hl=en&amp;rclk=1,43.8887,5.139,"Anc. Rte de Lagnes, 84220 Cabrières-d'Avignon, France",sylvestre.fr,#ERROR!,,,,"{'Monday': ['8a.m.–12p.m.', '1:30–5:30p.m.'], 'Tuesday': ['8a.m.–12p.m.', '1:30–5:30p.m.'], 'Wednesday': ['8a.m.–12p.m.', '1:30–5:30p.m.'], 'Thursday': ['8a.m.–12p.m.', '1:30–5:30p.m.'], 'Friday': ['8a.m.–12p.m.', '1:30–5:30p.m.'], 'Saturday': ['Closed'], 'Sunday': ['Closed']}",Quarry,020bc06c-935f-498a-994e-af696aa01696,data/images/train/020bc06c-935f-498a-994e-af696aa01696_43.8887_5.139.png
Carrieres Gontero Pierre Ciment,,https://www.google.com/maps/place/Carrieres+Gontero+Pierre+Ciment/data=!4m7!3m6!1s0x12b61fd912ec8d57:0x8e3f30d46e38db6a!8m2!3d43.3980853!4d5.0560569!16s%2Fg%2F113gq4_w4!19sChIJV43sEtkfthIRats4btQwP44?authuser=0&amp;hl=en&amp;rclk=1,43.3981,5.0561,"All. Albert Bastoni, 13500 Martigues, France",,#ERROR!,,,,{},Quarry,5bb6a600-f7b0-48b8-9656-79c53f7e50f2,data/images/train/5bb6a600-f7b0-48b8-9656-79c53f7e50f2_43.3981_5.0561.png
carrière hugot,,https://www.google.com/maps/place/carri%C3%A8re+hugot/data=!4m7!3m6!1s0x12ca0f718c7f8fbd:0x88ddebc2701406a9!8m2!3d43.8302551!4d5.1775854!16s%2Fg%2F1tcthp5n!19sChIJvY9_jHEPyhIRqQYUcMLr3Yg?authuser=0&amp;hl=en&amp;rclk=1,43.8303,5.1776,"2030 Rte des Carrières, 84580 Oppède, France",carrierehugot.com,#ERROR!,,,,,Quarry,cef88eef-5a2a-476d-89df-beb014a16df0,data/images/train/cef88eef-5a2a-476d-89df-beb014a16df0_43.8303_5.1776.png
Carrière De Provence,,https://www.google.com/maps/place/Carri%C3%A8re+De+Provence/data=!4m7!3m6!1s0x12ca057ef69f106f:0x433d09c27033001d!8m2!3d43.822647!4d5.187992!16s%2Fg%2F11hbqt683c!19sChIJbxCf9n4FyhIRHQAzcMIJPUM?authuser=0&amp;hl=en&amp;rclk=1,43.8226,5.188,"route des carrière, 84580 Oppède, France",,,,,,,Quarry,61ff9498-16f9-4d8b-8af8-f569273ba069,data/images/train/61ff9498-16f9-4d8b-8af8-f569273ba069_43.8226_5.188.png
Sibelco France,,https://www.google.com/maps/place/Sibelco+France/data=!4m7!3m6!1s0x12ca705ee71e9345:0x581be76082de21a0!8m2!3d44.1016962!4d5.1914162!16s%2Fg%2F1tglcm1r!19sChIJRZMe515wyhIRoCHegmDnG1g?authuser=0&amp;hl=en&amp;rclk=1,44.1017,5.1914,"Chem. des Crans, 84410 Bédoin, France",sibelco.com,#ERROR!,,,,"{'Monday': ['5a.m.–6:15p.m.'], 'Tuesday': ['5a.m.–6:15p.m.'], 'Wednesday': ['5a.m.–6:15p.m.'], 'Thursday': ['5a.m.–6:15p.m.'], 'Friday': ['5a.m.–6:15p.m.'], 'Saturday': ['Closed'], 'Sunday': ['Closed']}",Quarry,f61d330c-2dfd-4031-b547-964d19b5710f,data/images/train/f61d330c-2dfd-4031-b547-964d19b5710f_44.1017_5.1914.png
Sablieres Modernes,,https://www.google.com/maps/place/Sablieres+Modernes/data=!4m7!3m6!1s0x12c9c0bf8654f675:0x2b162e7c1de4596e!8m2!3d43.2980443!4d5.373191!16s%2Fg%2F11b6d76rtr!19sChIJdfZUhr_AyRIRblnkHXwuFis?authuser=0&amp;hl=en&amp;rclk=1,43.298,5.3732,"Rue des Prêcheurs, 97250 Marseille, France",,#ERROR!,,,,,Quarry,b0fd9727-8179-4c11-a09c-f76e95304f7d,data/images/train/b0fd9727-8179-4c11-a09c-f76e95304f7d_43.298_5.3732.png
Rocamat Pierre Naturelle,,https://www.google.com/maps/place/Rocamat+Pierre+Naturelle/data=!4m7!3m6!1s0x12c9ed6b375e55b7:0x12b55e8630237989!8m2!3d43.4931556!4d5.3698187!16s%2Fg%2F1tg52hms!19sChIJt1VeN2vtyRIRiXkjMIZetRI?authuser=0&amp;hl=en&amp;rclk=1,43.4932,5.3698,"75 Rue Marcellin Berthelot, 13290 Aix-en-Provence, France",rocamat.fr,#ERROR!,,,,,Quarry,4ed737b5-d9ec-4c89-920c-c401fde5c35b,data/images/train/4ed737b5-d9ec-4c89-920c-c401fde5c35b_43.4932_5.3698.png
Serre Frères Saint Pantaléon/Gordes,,https://www.google.com/maps/place/Serre+Fr%C3%A8res+Saint+Pantal%C3%A9on%2FGordes/data=!4m7!3m6!1s0x12ca0e3e388bbfa1:0x3819208db840ea9a!8m2!3d43.8812516!4d5.2092301!16s%2Fg%2F11g6nl9ml3!19sChIJob-LOD4OyhIRmupAuI0gGTg?authuser=0&amp;hl=en&amp;rclk=1,43.8813,5.2092,"Rte de Saint-Pantaléon, 84220 Gordes, France",serre-freres.com,#ERROR!,,,,"{'Monday': ['8a.m.–12p.m.', '1:30–5:30p.m.'], 'Tuesday': ['8a.m.–12p.m.', '1:30–5:30p.m.'], 'Wednesday': ['8a.m.–12p.m.', '1:30–5:30p.m.'], 'Thursday': ['8a.m.–12p.m.', '1:30–5:30p.m.'], 'Friday': ['8a.m.–12p.m.', '1:30–4p.m.'], 'Saturday': ['8a.m.–12p.m.'], 'Sunday': ['Closed']}",Quarry,4de86e52-0fae-4fda-9196-a526eea82132,data/images/train/4de86e52-0fae-4fda-9196-a526eea82132_43.8813_5.2092.png
Serre Frères et Cie,,https://www.google.com/maps/place/Serre+Fr%C3%A8res+et+Cie/data=!4m7!3m6!1s0x12ca101d16ab1529:0x179ec4f3e67cad7b!8m2!3d43.8376808!4d5.226118!16s%2Fg%2F1thvd3nh!19sChIJKRWrFh0QyhIRe6185vPEnhc?authuser=0&amp;hl=en&amp;rclk=1,43.8377,5.2261,"927 Chem. des Garrigues, 84560 Ménerbes, France",serre-freres.com,#ERROR!,,,,"{'Monday': ['8a.m.–12p.m.', '1:30–5:30p.m.'], 'Tuesday': ['8a.m.–12p.m.', '1:30–5:30p.m.'], 'Wednesday': ['8a.m.–12p.m.', '1:30–5:30p.m.'], 'Thursday': ['8a.m.–12p.m.', '1:30–5:30p.m.'], 'Friday': ['8a.m.–12p.m.', '1:30–4p.m.'], 'Saturday': ['Closed'], 'Sunday': ['Closed']}",Quarry,47690309-7052-4b8c-bf05-23a4bc0ab8c4,data/images/train/47690309-7052-4b8c-bf05-23a4bc0ab8c4_43.8377_5.2261.png
bloc carrière pierre et marbre,,https://www.google.com/maps/place/bloc+carri%C3%A8re+pierre+et+marbre/data=!4m7!3m6!1s0x12c9c08591979ec3:0x2df4eeb35ca82800!8m2!3d43.3123483!4d5.3842581!16s%2Fg%2F11mhps2y2p!19sChIJw56XkYXAyRIRACioXLPu9C0?authuser=0&amp;hl=en&amp;rclk=1,43.3123,5.3843,"12 bis Rue Saint-Claude, 13003 Marseille, France",,#ERROR!,,,,"{'Monday': ['Open 24 hours'], 'Tuesday': ['Open 24 hours'], 'Wednesday': ['Open 24 hours'], 'Thursday': ['Open 24 hours'], 'Friday': ['Open 24 hours'], 'Saturday': ['Open 24 hours'], 'Sunday': ['Open 24 hours']}",Quarry,ce5e0cee-aaf7-4cf4-b9fe-833e942ad9ba,data/images/train/ce5e0cee-aaf7-4cf4-b9fe-833e942ad9ba_43.3123_5.3843.png
Lafarge,,https://www.google.com/maps/place/Lafarge/data=!4m7!3m6!1s0x12c9eb4b48a1a553:0x12c0f50c5d6a7c98!8m2!3d43.4013556!4d5.334448!16s%2Fg%2F11mmcdzz2d!19sChIJU6WhSEvryRIRmHxqXQz1wBI?authuser=0&amp;hl=en&amp;rclk=1,43.4014,5.3344,"D113, 13170 Les Pennes-Mirabeau, France",lafarge.fr,,,,,,Quarry,e381900f-9b26-49e6-b888-62b7259fca49,data/images/train/e381900f-9b26-49e6-b888-62b7259fca49_43.4014_5.3344.png
Calcaires Regionaux,,https://www.google.com/maps/place/Calcaires+Regionaux/data=!4m7!3m6!1s0x12c9f7405b1a38b9:0x58a7ccfc8141e256!8m2!3d44.0544244!4d5.9746031!16s%2Fg%2F11fvx42fs_!19sChIJuTgaW0D3yRIRVuJBgfzMp1g?authuser=0&amp;hl=en&amp;rclk=1,44.0544,5.9746,,calcairesregionaux.com,#ERROR!,,,,,Quarry,0cf4e46b-f885-4aea-b83c-8b1b0dbd20d9,data/images/train/0cf4e46b-f885-4aea-b83c-8b1b0dbd20d9_44.0544_5.9746.png
Bergier Frères Société Nouvelle,,https://www.google.com/maps/place/Bergier+Fr%C3%A8res+Soci%C3%A9t%C3%A9+Nouvelle/data=!4m7!3m6!1s0x12ca220e23ca564b:0x4bc1e488f263de01!8m2!3d43.752791!4d5.404026!16s%2Fg%2F1tg2gkzl!19sChIJS1bKIw4iyhIRAd5j8ojkwUs?authuser=0&amp;hl=en&amp;rclk=1,43.7528,5.404,"Bessière, 84160 Vaugines, France",,#ERROR!,,,,,Quarry,e134fb77-114a-4c05-ba2b-e06338b0e2ce,data/images/train/e134fb77-114a-4c05-ba2b-e06338b0e2ce_43.7528_5.404.png
Lafarge Granulats Sud,,https://www.google.com/maps/place/Lafarge+Granulats+Sud/data=!4m7!3m6!1s0x12c98d95a9cef09f:0xfeb1e666151905a8!8m2!3d43.4821578!4d5.3649788!16s%2Fg%2F1tg2gwm9!19sChIJn_DOqZWNyRIRqAUZFWbmsf4?authuser=0&amp;hl=en&amp;rclk=1,43.4822,5.365,"Rue Jean René Guillibert Gauthier de la Lauzière, 13100 Aix-en-Provence, France",,#ERROR!,,,,,Quarry,f5ab97a2-7a8a-4364-9a44-b9c3fba3a6e5,data/images/train/f5ab97a2-7a8a-4364-9a44-b9c3fba3a6e5_43.4822_5.365.png
Macellaro Mario,,https://www.google.com/maps/place/Macellaro+Mario/data=!4m7!3m6!1s0x12ca26ede8e5214b:0xc49a012f42732881!8m2!3d43.7117179!4d5.5082412!16s%2Fg%2F1tcxlw1q!19sChIJSyHl6O0myhIRgShzQi8BmsQ?authuser=0&amp;hl=en&amp;rclk=1,43.7117,5.5082,"1050 Chem. Saint-Colomé, 84120 Pertuis, France",,#ERROR!,,,,,Quarry,994567a8-d845-49ae-b46a-9a799e6fd47e,data/images/train/994567a8-d845-49ae-b46a-9a799e6fd47e_43.7117_5.5082.png
Carrière La Roche d'Espeil,,https://www.google.com/maps/place/Carri%C3%A8re+La+Roche+d%27Espeil/data=!4m7!3m6!1s0x12ca19adec44a747:0x4372a81e54fad96f!8m2!3d43.789383!4d5.3479561!16s%2Fg%2F11d_7q8xmt!19sChIJR6dE7K0ZyhIRb9n6VB6ockM?authuser=0&amp;hl=en&amp;rclk=1,43.7894,5.348,"Combe de Lourmarin, 84480 Buoux, France",,#ERROR!,,,,"{'Monday': ['8a.m.–12p.m.', '2–4p.m.'], 'Tuesday': ['8a.m.–12p.m.', '2–4p.m.'], 'Wednesday': ['8a.m.–12p.m.', '2–4p.m.'], 'Thursday': ['8a.m.–12p.m.', '2–4p.m.'], 'Friday': ['8a.m.–12p.m.', '2–4p.m.'], 'Saturday': ['Closed'], 'Sunday': ['Closed']}",Quarry,55d2f473-475f-4442-b17c-83931d4a3213,data/images/train/55d2f473-475f-4442-b17c-83931d4a3213_43.7894_5.348.png
Carrière de Pierre de Taille La Roche d'Espeil,,https://www.google.com/maps/place/Carri%C3%A8re+de+Pierre+de+Taille+La+Roche+d%27Espeil/data=!4m7!3m6!1s0x12ca18307b023a17:0xe099e4cb07dfca35!8m2!3d43.8114964!4d5.3514083!16s%2Fg%2F1vc3kdrd!19sChIJFzoCezAYyhIRNcrfB8vkmeA?authuser=0&amp;hl=en&amp;rclk=1,43.8115,5.3514,"84480 Buoux, France",,#ERROR!,,,,,Quarry,3fb77219-b054-4d8d-b5bc-b87eabf51148,data/images/train/3fb77219-b054-4d8d-b5bc-b87eabf51148_43.8115_5.3514.png
Carrières et Bétons Bronzo Perasso,,https://www.google.com/maps/place/Carri%C3%A8res+et+B%C3%A9tons+Bronzo+Perasso/data=!4m7!3m6!1s0x12c9b8c517edf5bf:0x511fcdbd63da4bc3!8m2!3d43.2639353!4d5.4332998!16s%2Fg%2F1tdg030v!19sChIJv_XtF8W4yRIRw0vaY73NH1E?authuser=0&amp;hl=en&amp;rclk=1,43.2639,5.4333,"Chem. du Vallon de Toulouse, 13422 Marseille, France",bronzoperasso.fr,#ERROR!,,,,,Quarry,2ba5f1a3-e82c-4ef6-bcc8-5643454ecafb,data/images/train/2ba5f1a3-e82c-4ef6-bcc8-5643454ecafb_43.2639_5.4333.png
Eurovia Management,,https://www.google.com/maps/place/Eurovia+Management/data=!4m7!3m6!1s0x12c9924b6a21e907:0x69e1b69d328ad0c5!8m2!3d43.4473703!4d5.4281156!16s%2Fg%2F1wjspkd9!19sChIJB-khakuSyRIRxdCKMp224Wk?authuser=0&amp;hl=en&amp;rclk=1,43.4474,5.4281,"D60, Chem. Joseph Roumanille, 13320 Bouc-Bel-Air, France",eurovia.fr,#ERROR!,,,,"{'Monday': ['7a.m.–9p.m.'], 'Tuesday': ['7a.m.–9p.m.'], 'Wednesday': ['7a.m.–9p.m.'], 'Thursday': ['7a.m.–9p.m.'], 'Friday': ['7a.m.–9p.m.'], 'Saturday': ['9a.m.–12p.m.'], 'Sunday': ['Closed']}",Quarry,8a3af7ac-9182-4d47-b3f6-fd019c7a7c8d,data/images/train/8a3af7ac-9182-4d47-b3f6-fd019c7a7c8d_43.4474_5.4281.png
L.g.f.,,https://www.google.com/maps/place/L.g.f./data=!4m7!3m6!1s0x12c9ed1a60282f5b:0x983f87403b76a320!8m2!3d43.4821946!4d5.3650919!16s%2Fg%2F11b6dfkylp!19sChIJWy8oYBrtyRIRIKN2O0CHP5g?authuser=0&amp;hl=en&amp;rclk=1,43.4822,5.3651,"Rue Jean René Guillibert Gauthier de la Lauzière, 13090 Aix-en-Provence, France",,#ERROR!,,,,{},Quarry,ba397698-c40e-4d17-b507-7fcddaf5a6ec,data/images/train/ba397698-c40e-4d17-b507-7fcddaf5a6ec_43.4822_5.3651.png
Tarpinian,,https://www.google.com/maps/place/Tarpinian/data=!4m7!3m6!1s0x12c9a2de15b0e003:0x167480d17e80fbf4!8m2!3d43.3130138!4d5.5816408!16s%2Fg%2F11h46743fz!19sChIJA-CwFd6iyRIR9PuAftGAdBY?authuser=0&amp;hl=en&amp;rclk=1,43.313,5.5816,"375 Av. de Passe Temps, 13400 Aubagne, France",,#ERROR!,,,,,Quarry,b870a5ae-2c46-4016-8d0e-90b361bed6db,data/images/train/b870a5ae-2c46-4016-8d0e-90b361bed6db_43.313_5.5816.png
Holcim Granulats,,https://www.google.com/maps/place/Holcim+Granulats/data=!4m7!3m6!1s0x12c9bfbb932f2f2d:0x119e8a8907f6d11b!8m2!3d43.3302077!4d5.4209922!16s%2Fg%2F11b6dc_8ly!19sChIJLS8vk7u_yRIRG9H2B4mKnhE?authuser=0&amp;hl=en&amp;rclk=1,43.3302,5.421,"Rue Albert Lougnon 273 Saint Joseph, 97480, France",,#ERROR!,,,,{},Quarry,dafbf593-4c0d-4670-b69e-a8e1e5af5960,data/images/train/dafbf593-4c0d-4670-b69e-a8e1e5af5960_43.3302_5.421.png
Carrières et Bétons Bronzo Perrasso,,https://www.google.com/maps/place/Carri%C3%A8res+et+B%C3%A9tons+Bronzo+Perrasso/data=!4m7!3m6!1s0x12c9ed31d18803cd:0x7facc0f623ee693b!8m2!3d43.4826743!4d5.3863581!16s%2Fg%2F1thpyxww!19sChIJzQOI0THtyRIRO2nuI_bArH8?authuser=0&amp;hl=en&amp;rclk=1,43.4827,5.3864,"Rue Gustave Eiffel, 13290 Aix-en-Provence, France",,#ERROR!,,,,{},Quarry,ea5184c2-bfff-4dcd-b8af-1d17f3c5e7d7,data/images/train/ea5184c2-bfff-4dcd-b8af-1d17f3c5e7d7_43.4827_5.3864.png
Setp,,https://www.google.com/maps/place/Setp/data=!4m7!3m6!1s0x12c9ba94ac2d29f3:0x497ffd5aaaf753f5!8m2!3d43.2148926!4d5.5359642!16s%2Fg%2F1vl5czpl!19sChIJ8yktrJS6yRIR9VP3qlr9f0k?authuser=0&amp;hl=en&amp;rclk=1,43.2149,5.536,"30 Rue du Jeune Anacharsis, 13260 Cassis, France",,#ERROR!,,,,,Quarry,4f017a8a-b141-434f-8110-8a4c56091076,data/images/train/4f017a8a-b141-434f-8110-8a4c56091076_43.2149_5.536.png
Granulat plus,,https://www.google.com/maps/place/Granulat+plus/data=!4m7!3m6!1s0x12c99376ec621a3f:0x408151da79c9340e!8m2!3d43.4449757!4d5.4323104!16s%2Fg%2F11f08pcgmn!19sChIJPxpi7HaTyRIRDjTJedpRgUA?authuser=0&amp;hl=en&amp;rclk=1,43.445,5.4323,"Chem. Joseph Roumanille, 13320 Bouc-Bel-Air, France",,#ERROR!,,,,{},Quarry,890b9ee2-c88b-47b7-9556-6749f8c976ca,data/images/train/890b9ee2-c88b-47b7-9556-6749f8c976ca_43.445_5.4323.png
Carriere LAFARGE cassis,,https://www.google.com/maps/place/Carriere+LAFARGE+cassis/data=!4m7!3m6!1s0x12c9bb34e083bd81:0xa9a20a5de3615b24!8m2!3d43.2384837!4d5.5522706!16s%2Fg%2F11kzf6syrv!19sChIJgb2D4DS7yRIRJFth410Koqk?authuser=0&amp;hl=en&amp;rclk=1,43.2385,5.5523,"7-16 Av. du Clos du Vallon, 13260 Cassis, France",,,,,,"{'Monday': ['7:30a.m.–3:45p.m.'], 'Tuesday': ['7:30a.m.–3:45p.m.'], 'Wednesday': ['7:30a.m.–3:45p.m.'], 'Thursday': ['7:30a.m.–3:45p.m.'], 'Friday': ['7:30a.m.–3:15p.m.'], 'Saturday': ['Closed'], 'Sunday': ['Closed']}",Quarry,7d67cb75-b627-4ec1-8896-c177752d785d,data/images/train/7d67cb75-b627-4ec1-8896-c177752d785d_43.2385_5.5523.png
Durance Granulats - Jouques,,https://www.google.com/maps/place/Durance+Granulats+-+Jouques/data=!4m7!3m6!1s0x12ca29d83a8855a1:0x4a8cbd44343949af!8m2!3d43.654938!4d5.615067!16s%2Fg%2F11f5h5r1tz!19sChIJoVWIOtgpyhIRr0k5NES9jEo?authuser=0&amp;hl=en&amp;rclk=1,43.6549,5.6151,"RD96, 13490 Jouques, France",durance-granulats.com,#ERROR!,,,,"{'Monday': ['7a.m.–12p.m.', '1–4p.m.'], 'Tuesday': ['7a.m.–12p.m.', '1–4p.m.'], 'Wednesday': ['7a.m.–12p.m.', '1–4p.m.'], 'Thursday': ['7a.m.–12p.m.', '1–4p.m.'], 'Friday': ['7a.m.–12p.m.', '1–4p.m.'], 'Saturday': ['Closed'], 'Sunday': ['Closed']}",Quarry,1e218bb6-cdb9-44cc-94b7-372c8efab999,data/images/train/1e218bb6-cdb9-44cc-94b7-372c8efab999_43.6549_5.6151.png
Entreprise Clavel-Emery,,https://www.google.com/maps/place/Entreprise+Clavel-Emery/data=!4m7!3m6!1s0x12cb1d8952d9bc09:0x256252c21542d08a!8m2!3d44.4523473!4d5.7313498!16s%2Fg%2F1wn79xgt!19sChIJCbzZUokdyxIRitBCFcJSYiU?authuser=0&amp;hl=en&amp;rclk=1,44.4523,5.7313,"La Garenne, 05700 La Bâtie-Montsaléon, France",,#ERROR!,,,,"{'Monday': ['8a.m.–12p.m.', '1:30–5:30p.m.'], 'Tuesday': ['8a.m.–12p.m.', '1:30–5:30p.m.'], 'Wednesday': ['8a.m.–12p.m.', '1:30–5:30p.m.'], 'Thursday': ['8a.m.–12p.m.', '1:30–5:30p.m.'], 'Friday': ['8a.m.–12p.m.', '1:30–5:30p.m.'], 'Saturday': ['Closed'], 'Sunday': ['Closed']}",Quarry,7f7da3db-d403-4458-9da3-6f499364b54e,data/images/train/7f7da3db-d403-4458-9da3-6f499364b54e_44.4523_5.7313.png
Carriere de Puyloubier,,https://www.google.com/maps/place/Carriere+de+Puyloubier/data=!4m7!3m6!1s0x12c983b10eddec35:0x829703d2e1acef2c!8m2!3d43.5044302!4d5.6479816!16s%2Fg%2F11qsvbwjrf!19sChIJNezdDrGDyRIRLO-s4dIDl4I?authuser=0&amp;hl=en&amp;rclk=1,43.5044,5.648,"Domaine Richeaume FRANCE, 13114 Puyloubier, France",,,,,,,Quarry,8c42cf0f-aced-4e8e-a342-b4b4e1fbf07d,data/images/train/8c42cf0f-aced-4e8e-a342-b4b4e1fbf07d_43.5044_5.648.png
Carrière de calcaire Sainte-Anne,,https://www.google.com/maps/place/Carri%C3%A8re+de+calcaire+Sainte-Anne/data=!4m7!3m6!1s0x12c987d26d093afb:0x7786513f26d96914!8m2!3d43.6315845!4d5.58888!16s%2Fg%2F11kk6yzty_!19sChIJ-zoJbdKHyRIRFGnZJj9Rhnc?authuser=0&amp;hl=en&amp;rclk=1,43.6316,5.5889,"13860 Peyrolles-en-Provence, France",,,,,,{},Quarry,a5f2e36e-97df-4e5c-9bec-a4e790e167e8,data/images/train/a5f2e36e-97df-4e5c-9bec-a4e790e167e8_43.6316_5.5889.png
CARRIERE pour la construction de CARLUC,,https://www.google.com/maps/place/CARRIERE+pour+la+construction+de+CARLUC/data=!4m7!3m6!1s0x12ca317cc2674fc5:0x817e315a2f9b47fc!8m2!3d43.8721604!4d5.6175937!16s%2Fg%2F11t86c0v2q!19sChIJxU9nwnwxyhIR_EebL1oxfoE?authuser=0&amp;hl=en&amp;rclk=1,43.8722,5.6176,"04110 Reillanne, France",,,,,,{},Quarry,3730e41a-0ea4-4703-832e-9e02b7ad1748,data/images/train/3730e41a-0ea4-4703-832e-9e02b7ad1748_43.8722_5.6176.png
Gravi Buech,,https://www.google.com/maps/place/Gravi+Buech/data=!4m7!3m6!1s0x12cb06b092a55d0f:0xd231aaf8ba733a6a!8m2!3d44.3192291!4d5.797019!16s%2Fg%2F1v2g9z1y!19sChIJD12lkrAGyxIRajpzuviqMdI?authuser=0&amp;hl=en&amp;rclk=1,44.3192,5.797,"L Ile d'oriane, 05300 Laragne-Montéglin, France",gravi-buech.fr,#ERROR!,,,,"{'Monday': ['8a.m.–12p.m.', '1:30–5:30p.m.'], 'Tuesday': ['8a.m.–12p.m.', '1:30–5:30p.m.'], 'Wednesday': ['8a.m.–12p.m.', '1:30–5:30p.m.'], 'Thursday': ['8a.m.–12p.m.', '1:30–5:30p.m.'], 'Friday': ['8a.m.–12p.m.', '1:30–5p.m.'], 'Saturday': ['Closed'], 'Sunday': ['Closed']}",Quarry,568259f2-3522-406a-aa7e-039c11321d12,data/images/train/568259f2-3522-406a-aa7e-039c11321d12_44.3192_5.797.png
Lafarge Granulats Sud,,https://www.google.com/maps/place/Lafarge+Granulats+Sud/data=!4m7!3m6!1s0x12c9046702b82193:0xb4f554b4105bf7ae!8m2!3d43.1196169!4d5.8491267!16s%2Fg%2F119whdb4f!19sChIJkyG4AmcEyRIRrvdbELRU9bQ?authuser=0&amp;hl=en&amp;rclk=1,43.1196,5.8491,"641 Chem. de Bassaquet, 83140 Six-Fours-les-Plages, France",,#ERROR!,,,,"{'Monday': ['7a.m.–12p.m.', '1–4:30p.m.'], 'Tuesday': ['7a.m.–12p.m.', '1–4:30p.m.'], 'Wednesday': ['7a.m.–12p.m.', '1–4:30p.m.'], 'Thursday': ['7a.m.–12p.m.', '1–4:30p.m.'], 'Friday': ['7a.m.–12p.m.', '1–4:30p.m.'], 'Saturday': ['Closed'], 'Sunday': ['Closed']}",Quarry,29139cf9-f00f-4e75-b418-2e7683f75c9f,data/images/train/29139cf9-f00f-4e75-b418-2e7683f75c9f_43.1196_5.8491.png
Société Méridionale de Carrières,,https://www.google.com/maps/place/Soci%C3%A9t%C3%A9+M%C3%A9ridionale+de+Carri%C3%A8res/data=!4m7!3m6!1s0x12c90da932abce4f:0x965c4c46c2bef953!8m2!3d43.2836169!4d5.826931!16s%2Fg%2F1v6p1gl1!19sChIJT86rMqkNyRIRU_m-wkZMXJY?authuser=0&amp;hl=en&amp;rclk=1,43.2836,5.8269,"3000 Rte de Marseille, 83870 Signes, France",someca.eu,#ERROR!,,,,"{'Monday': ['7a.m.–12p.m.', '1–4:30p.m.'], 'Tuesday': ['7a.m.–12p.m.', '1–4:30p.m.'], 'Wednesday': ['7a.m.–12p.m.', '1–4:30p.m.'], 'Thursday': ['7a.m.–12p.m.', '1–4:30p.m.'], 'Friday': ['7a.m.–12p.m.', '1–4p.m.'], 'Saturday': ['Closed'], 'Sunday': ['Closed']}",Quarry,99717940-769a-497e-89e7-a1b7e6f5c6c8,data/images/train/99717940-769a-497e-89e7-a1b7e6f5c6c8_43.2836_5.8269.png
BOURJAC,,https://www.google.com/maps/place/BOURJAC/data=!4m7!3m6!1s0x12ca2b2371c1e987:0x67dc55a80cbda1ba!8m2!3d43.694275!4d5.713287!16s%2Fg%2F1td0jlhl!19sChIJh-nBcSMryhIRuqG9DKhV3Gc?authuser=0&amp;hl=en&amp;rclk=1,43.6943,5.7133,"Carrière de Saint Eucher, 84120 Beaumont-de-Pertuis, France",,#ERROR!,,,,,Quarry,f4653203-34c5-42c9-bb42-7dd4170451aa,data/images/train/f4653203-34c5-42c9-bb42-7dd4170451aa_43.6943_5.7133.png
